country,location_name,latitude,longitude,last_updated,temperature_celsius,wind_kph,humidity,cloud,visibility_km,uv_index,air_quality_Carbon_Monoxide,air_quality_Ozone,air_quality_Nitrogen_dioxide,air_quality_Sulphur_dioxide,air_quality_PM2.5,air_quality_PM10,air_quality_us.epa.index,Continent
Afghanistan,Kabul,34.52,69.18,2023-08-29 14:00,28.8,11.5,19,0,10,7,647.5,130.2,1.2,0.4,7.9,11.1,1,Asia
Albania,Tirana,41.33,19.82,2023-08-29 11:30,27,6.1,54,75,10,6,433.9,104.4,3.6,1.8,28.2,29.6,2,Europe
Algeria,Algiers,36.76,3.05,2023-08-29 10:30,28,13,30,25,10,7,647.5,16.6,63.1,12.6,6.4,7.9,1,Africa
Andorra,Andorra La Vella,42.5,1.52,2023-08-29 11:30,10.2,9.7,51,6,10,4,190.3,68,0.2,0.2,0.5,0.8,1,Europe
Angola,Luanda,-8.84,13.23,2023-08-29 10:30,25,3.6,69,75,10,6,2136.2,147.3,52.8,26.9,139.6,203.3,4,Africa
Antigua and Barbuda,Saint John's,17.12,-61.85,2023-08-29 05:30,29,15.1,79,75,10,1,200.3,16.6,0.5,0.5,0.8,1.9,1,America
Argentina,Buenos Aires,-34.59,-58.67,2023-08-29 06:30,9,11.2,71,0,10,1,270.4,18.8,10.7,1.3,2.1,3.5,1,America
Armenia,Yerevan,40.18,44.51,2023-08-29 13:30,31,9,26,25,10,8,212,121.6,1,1.1,5,6.2,1,Asia
Australia,Canberra,-35.28,149.22,2023-08-29 19:30,13,15.1,62,0,10,1,203.6,44,3.5,0.5,4,5.8,1,Australia
Austria,Vienna,48.2,16.37,2023-08-29 11:30,16,19.1,82,75,10,4,320.4,30,29.1,13,13.1,14.9,1,Europe
Azerbaijan,Baku,40.4,49.88,2023-08-29 13:30,31,22,36,0,10,7,230.3,101.6,2.4,0.9,5.6,6.8,1,Asia
Bahamas,Nassau,25.08,-77.35,2023-08-29 05:30,29.8,14.4,80,8,10,1,220.3,29.3,1,1.2,1.4,2.1,1,America
Bahrain,Manama,26.24,50.58,2023-08-29 12:30,38,13,54,0,10,9,360.5,254.6,5.7,9.7,69.3,152.9,4,Asia
Bangladesh,Dhaka,23.72,90.41,2023-08-29 15:30,34,5.4,52,70,10,7,827.8,45.8,59,11.1,84.8,95.6,4,Asia
Barbados,Bridgetown,13.1,-59.62,2023-08-29 05:30,27,25.9,89,25,10,1,201.9,17.7,0.8,0.7,1.6,3.5,1,America
Belarus,Minsk,53.9,27.57,2023-08-29 12:30,22,11.2,61,0,10,6,210.3,94.4,2.4,5.1,2.1,2.3,1,Europe
Belgium,Brussels,50.83,4.33,2023-08-29 11:30,16,6.1,82,25,10,5,247,40.8,28.8,9.3,16.6,19.6,2,Europe
Belize,Belmopan,17.25,-88.77,2023-08-29 03:30,23.6,6.8,95,70,9,1,161.9,6.6,0.4,0.1,2.8,2.9,1,America
Benin,Porto-Novo,6.48,2.62,2023-08-29 10:30,28,16.9,84,50,10,6,560.8,20.6,4.1,1.5,13.4,23.1,1,Africa
Bhutan,Thimphu,27.48,89.6,2023-08-29 15:30,17.1,8.6,75,83,9,4,400.5,47.2,0.1,0.2,7.3,7.6,1,Asia
Bolivia,Sucre,-19.04,-65.26,2023-08-29 05:30,10.8,3.6,38,0,10,1,155.2,41.5,1,0.5,3.2,12.3,1,America
Bosnia and Herzegovina,Sarajevo,43.85,18.38,2023-08-29 11:30,23,29.9,47,50,10,6,237,85.8,0.9,7,8.4,8.8,1,Europe
Botswana,Gaborone,-24.65,25.91,2023-08-29 11:30,18.4,15.1,35,6,10,5,460.6,85.8,1.4,1.6,17.4,19.9,2,Africa
Brazil,Bras,-2.08,-58.17,2023-08-29 05:30,23.8,5,54,8,10,1,317.1,19.5,0.5,0.2,2.4,3.8,1,America
Brunei Darussalam,Bandar Seri Begawan,4.88,114.93,2023-08-29 17:30,31,11.2,79,75,10,6,283.7,28.6,1.2,0.6,2.1,2.8,1,Asia
Bulgaria,Sofia,42.68,23.32,2023-08-29 12:30,28,15.1,40,25,10,6,240.3,101.6,1.3,1.2,9.2,11.3,1,Europe
Burkina Faso,Ouagadougou,12.37,-1.52,2023-08-29 09:30,28,6.8,79,25,10,7,814.4,18.2,4.6,2.2,18.4,35.4,2,Africa
Burundi,Bujumbura,-3.38,29.36,2023-08-29 11:30,28.9,16.9,34,25,10,7,337.1,64.4,0.9,0.7,7.2,16.1,1,Africa
Madagascar,Ivory,-24.37,46.45,2023-08-29 12:30,22.9,10.1,35,0,10,6,201.9,63.7,0.1,0.2,1.2,3.4,1,Indian
Cape Verde,Praia,14.93,-23.51,2023-08-29 08:30,28,15.1,74,25,6,7,188.6,52.2,0.6,0.3,29,158.9,2,Atlantic
Cambodia,Phnom Penh,11.55,104.92,2023-08-29 16:30,30,11.2,75,75,8,8,310.4,24,2.8,1.7,2,5.3,1,Asia
Cameroon,Bafoussam,5.47,10.42,2023-08-29 10:30,23.9,3.6,78,89,9,5,721,9.1,2.8,0.8,20.5,30,2,Africa
Canada,Ottawa,45.42,-75.7,2023-08-29 05:30,11,6.8,100,0,24,1,205.3,17.7,2.5,0.4,3.7,4.1,1,America
Central African Republic,Bangui,4.37,18.58,2023-08-29 10:30,26.3,3.6,80,39,10,7,260.4,1,0.1,0,0.5,0.8,1,Africa
Chad,N'djamena,12.11,15.05,2023-08-29 10:30,32,19.1,67,0,7,7,534.1,20.2,0.9,0.8,9.5,13.3,1,Africa
Chile,Santiago,-33.45,-70.67,2023-08-29 05:30,5,6.1,87,0,10,1,5500.8,0,57.6,16.2,496.2,596.9,6,America
China,Beijing,39.93,116.39,2023-08-29 17:30,28,6.8,37,0,10,7,420.6,140.2,56.9,76.3,26.2,34.3,2,Asia
Bulgaria,Bogot,43.32,24.7,2023-08-29 12:30,36.4,11.9,17,4,10,9,201.9,97.3,0.5,0.5,4.4,5.3,1,Europe
Comoros,Moroni,-11.7,43.24,2023-08-29 12:30,24,24.1,83,75,10,5,227,67.2,0.2,0.5,6.9,11.1,1,Indian
Congo,Brazzaville,-4.26,15.28,2023-08-29 10:30,31.1,9,51,62,10,8,540.7,38.6,2,1,7.8,22.3,1,Africa
Costa Rica,San Juan,9.97,-84.08,2023-08-29 03:30,21,6.1,94,0,10,1,1028.1,0,13.2,4.8,44.3,44.9,3,America
Croatia,Zagreb,45.8,16,2023-08-29 11:30,23,3.6,69,25,10,6,247,83.7,2.1,1.8,7.2,8,1,Europe
Cuba,Havana,23.13,-82.36,2023-08-29 05:30,26,15.1,100,75,9,1,277,24.3,5.2,14.4,2.6,3.1,1,America
Cyprus,Nicosia,35.17,33.37,2023-08-29 12:30,35,11.2,35,25,10,8,233.7,110.2,0.4,1.9,13,23.1,1,Asia
Czech Republic,Prague,50.08,14.47,2023-08-29 11:30,13,9,94,100,10,3,217,53.6,6.4,4.5,3,3.8,1,Europe
Democratic Republic of Congo,Kinshasa,-4.3,15.3,2023-08-29 10:30,31.1,9,50,60,10,8,540.7,38.6,2,1,7.8,22.3,1,Africa
Denmark,Copenhagen,55.67,12.58,2023-08-29 11:30,17,6.8,72,0,10,5,237,61.5,4.8,1.2,1.2,2.4,1,Europe
Djibouti,Djibouti,11.6,43.15,2023-08-29 12:30,42,15.1,29,25,8,9,347.1,61.5,0.3,0.2,9.2,20.9,1,Africa
Dominica,Roseau,15.3,-61.4,2023-08-29 05:30,28.2,19.8,79,62,10,1,178.6,18.8,0.4,0.2,1.1,2.1,1,America
Dominican Republic,Santo Domingo,18.47,-69.9,2023-08-29 05:30,26,6.8,94,25,10,1,514,0,9.1,2.8,15.3,23.6,1,America
Ecuador,Quito,-0.22,-78.5,2023-08-29 04:30,8.9,6.8,62,6,10,1,1976,0,54.8,57.7,17.5,20.7,2,America
Egypt,Cairo,30.05,31.25,2023-08-29 12:30,31,19.1,46,50,10,1,260.4,44,17,23.6,39,55.9,2,Africa
El Salvador,San Salvador,13.71,-89.2,2023-08-29 03:30,26,6.8,94,50,10,1,300.4,3.9,7,10.9,17.1,22.1,2,America
Equatorial Guinea,Malabo,3.75,8.78,2023-08-29 10:30,25.9,8.6,81,87,10,6,343.8,34.3,0.2,0.1,2.7,3.1,1,Africa
Eritrea,Asmara,15.33,38.93,2023-08-29 12:30,25.1,17.3,34,87,10,6,243.7,37.9,0.1,0.2,10.4,31.1,1,Africa
Estonia,Tallinn,59.43,24.73,2023-08-29 12:30,19,16.9,73,50,10,5,208.6,103,1,0.9,3.1,3.2,1,Europe
Swaziland,Mbabane,-26.32,31.13,2023-08-29 11:30,20,3.6,49,0,10,5,363.8,46.5,1.7,1.7,16.3,21.8,2,Africa
Ethiopia,Addis Ababa,9.03,38.7,2023-08-29 12:30,17,13,83,50,10,3,460.6,33.3,0.7,0.6,15.7,109.3,2,Africa
Fiji Islands,Suva,-18.13,178.42,2023-08-29 21:30,24,13,78,75,10,1,195.3,61.5,1.7,2.1,1.5,6.3,1,Pacific
Finland,Helsinki,60.18,24.93,2023-08-29 12:30,20,19.1,64,50,10,5,217,70.8,3.8,2.1,4,5,1,Europe
France,Paris,48.87,2.33,2023-08-29 11:30,18,11.2,64,25,10,6,223.6,70.1,4.6,2.8,6,7.4,1,Europe
Gabon,Libreville,0.38,9.45,2023-08-29 10:30,27,8.3,74,56,10,6,507.4,26.1,3.6,4.1,6.8,10.3,1,Africa
Gambia,Banjul,13.45,-16.58,2023-08-29 09:30,27,15.1,94,75,10,6,250.3,35.4,0.4,0.2,1.2,2.4,1,Africa
Georgia,Tbilisi,41.73,44.79,2023-08-29 13:30,30,13,43,0,10,7,220.3,78,1,0.9,4.5,5,1,Asia
Germany,Berlin,52.52,13.4,2023-08-29 11:30,16,15.1,82,75,10,3,217,52.9,7.9,3.2,5.1,5.5,1,Europe
Ghana,Accra,5.55,-0.22,2023-08-29 09:30,26,11.2,89,100,10,7,403.9,17.9,3.4,1.1,5.8,13.8,1,Africa
Greece,Athens,37.98,23.72,2023-08-29 12:30,32,11.2,26,25,10,8,283.7,177.4,13,31.5,23.4,26.6,2,Europe
Grenada,Saint George's,12.05,-61.75,2023-08-29 05:30,26,20.2,94,50,10,1,186.9,17.4,0.7,0.6,1.4,3.7,1,America
Guatemala,Guatemala City,14.62,-90.53,2023-08-29 03:30,17,3.6,96,57,2,1,1241.7,1.1,17.3,17.9,93.4,106.8,4,America
Guinea,Conakry,9.51,-13.71,2023-08-29 09:30,25,6.8,100,75,10,5,433.9,27.9,0.4,0.1,0.6,17,1,Africa
Guinea-Bissau,Bissau,11.85,-15.58,2023-08-29 09:30,28,11.2,84,50,9,6,273.7,15.7,0.7,0.6,1.4,2.4,1,Africa
Guyana,Georgetown,6.8,-58.17,2023-08-29 05:30,24,3.6,100,75,5,1,207,13.6,1.3,1.6,0.8,1.3,1,America
Haiti,Port-Au-Prince,18.54,-72.34,2023-08-29 05:30,27,15.1,89,0,9,1,560.8,27.2,9.8,5.3,6.9,14.9,1,America
Vatican City,Vatican City,41.9,12.45,2023-08-29 11:30,21,3.6,88,50,4,5,210.3,70.8,1.8,1,3.4,9.5,1,Europe
Honduras,Tegucigalpa,14.1,-87.22,2023-08-29 03:30,21,6.1,88,75,10,1,178.6,16.5,0.5,0.3,1.1,2.4,1,America
Hungary,Budapest,47.5,19.08,2023-08-29 11:30,20,11.2,88,75,10,5,240.3,83,7.7,9.1,13.9,16.2,1,Europe
Iceland,Hella,63.83,-20.4,2023-08-29 09:30,11,6.8,82,0,10,3,220.3,45.1,0.2,0.1,0.6,2.9,1,Atlantic
India,New Delhi,28.6,77.2,2023-08-29 15:00,34,6.8,50,50,5,9,267,95.8,4.1,6.7,33.2,131.3,2,Asia
Indonesia,Jakarta,-6.21,106.85,2023-08-29 16:30,31,25.9,63,25,8,8,1268.4,191.7,35.6,39.1,107,132.5,4,Asia
Iran,Tehran,35.73,51.33,2023-08-29 13:00,33,15.1,15,25,10,8,370.5,135.9,40.4,38.2,24.1,93.3,2,Asia
Iraq,Baghdad,33.34,44.39,2023-08-29 12:30,37,11.2,24,0,10,9,220.3,186,3.6,18.6,22.1,63.2,2,Asia
Ireland,Dublin,53.33,-6.25,2023-08-29 10:30,14,22,88,75,10,4,220.3,56.5,1.4,0.9,2.1,3.2,1,Europe
Israel,Jerusalem,31.78,35.23,2023-08-29 12:30,30,20.2,62,50,10,7,220.3,144.5,3.4,5.9,13.6,21.7,1,Asia
Italy,Rome,41.9,12.48,2023-08-29 11:30,21,3.6,88,50,4,5,210.3,70.8,1.8,1,3.4,9.5,1,Europe
Jamaica,Norman Gardens,17.97,-76.75,2023-08-29 04:30,30,22,84,25,10,1,317.1,14.5,5.9,3.1,3.1,4.8,1,America
Japan,Tokyo,35.69,139.69,2023-08-29 18:30,32,15.1,59,25,10,7,220.3,37.6,39.4,25,6.6,11.7,1,Asia
Jordan,Amman,31.95,35.93,2023-08-29 12:30,27,19.1,51,50,6,7,230.3,131.6,1.2,3.7,15.2,25.9,1,Asia
Kazakhstan,Astana,51.18,71.43,2023-08-29 15:30,22,31,29,37,10,5,247,73.7,2.7,8.1,3.1,6.9,1,Asia
Kenya,Nairobi,-1.28,36.82,2023-08-29 12:30,21,16.9,43,75,10,6,494,63.7,3.6,5.7,8.5,21.1,1,Africa
Kiribati,Tarawa,-0.88,169.53,2023-08-29 21:30,28.9,16.6,77,51,10,1,170.2,12.7,0,0,0.5,1.9,1,Pacific
Kuwait,Kuwait City,29.37,47.96,2023-08-29 12:30,39.6,3.6,23,0,10,9,687.6,181.7,94.6,22.9,45.7,122.6,3,Asia
Kyrghyzstan,Bishkek,42.87,74.6,2023-08-29 15:30,27.4,9.7,20,19,10,7,208.6,104.4,0.8,1.5,2,3,1,Asia
Indonesia,Laos,-8.18,114.32,2023-08-29 16:30,27.9,12.2,60,4,10,7,380.5,73.7,2.2,2.2,11.7,21.7,1,Asia
Latvia,Riga,56.95,24.1,2023-08-29 12:30,16,9,94,0,10,5,217,70.8,1.6,0.8,4.3,4.7,1,Europe
Lebanon,Beirut,33.87,35.51,2023-08-29 12:45,30,24.1,62,75,6,7,237,108.7,0.6,2.3,15.8,31.5,2,Asia
Lesotho,Maseru,-29.32,27.48,2023-08-29 11:45,18.9,4.3,15,0,10,5,847.8,94.4,2.8,3.8,69.6,77.6,4,Africa
Liberia,Monrovia,6.31,-10.8,2023-08-29 09:45,25,3.6,94,75,10,6,270.4,44,0.3,0.3,2.8,3.7,1,Africa
Thailand,Nan,18.78,100.78,2023-08-29 16:45,33,3.6,63,25,10,6,327.1,29,4.4,3.9,8.3,9.2,1,Asia
Liechtenstein,Vaduz,47.13,9.52,2023-08-29 11:45,12,6.8,100,75,10,2,212,36.1,5.4,1,4.3,4.6,1,Europe
Lithuania,Vilnius,54.68,25.32,2023-08-29 12:30,17,13,94,75,10,5,207,90.8,1.3,2.2,3.6,4.3,1,Europe
Luxembourg,Luxembourg,49.61,6.13,2023-08-29 11:45,16,11.2,77,25,10,4,208.6,61.5,8.6,0.9,4.9,5.8,1,Europe
Madagascar,Antananarivo,-18.92,47.52,2023-08-29 12:45,21,24.1,56,75,10,4,273.7,57.9,0.6,1,1.8,3.6,1,Indian
Malawi,Lilongwe,-13.98,33.78,2023-08-29 11:45,18,19.1,88,25,10,6,253.7,60.8,0.4,0.7,2.2,3.9,1,Africa
Malaysia,Kuala Lumpur,3.17,101.7,2023-08-29 17:45,27,3.6,89,25,9,6,7370,29.3,241.3,96.3,126.8,141.1,4,Asia
Maldives,Farukolhufunadhoo,6.15,73.27,2023-08-29 14:30,25.3,42.8,87,100,3,6,160.2,39,0.3,0.1,0.5,0.9,1,Indian
Mali,Bamako,12.65,-8,2023-08-29 09:45,23,13,100,25,10,5,423.9,9.8,1.8,1.7,4.3,6.9,1,Africa
Malta,Valletta,35.9,14.51,2023-08-29 11:30,28,20.2,42,25,10,7,196.9,83,0.4,0.8,3.3,12.9,1,Europe
Marshall Islands,Majuro,7.1,171.38,2023-08-29 21:45,29,11.2,75,100,24,1,171.9,27.9,0,0.1,1,2.6,1,Pacific
Mauritania,Nouakchott,18.09,-15.98,2023-08-29 09:45,28.6,19.8,70,11,10,7,377.2,38.6,1.5,1.5,15.9,46.5,2,Africa
Mauritius,Port Louis,-20.16,57.5,2023-08-29 13:30,26,15.1,70,75,10,7,230.3,66.5,3,3.9,6.9,10.4,1,Indian
Mexico,Mexico City,19.43,-99.13,2023-08-29 03:45,16,11.2,77,50,16,1,460.6,0.4,18.9,14.8,15.5,23.6,2,America
Micronesia,Palikir,6.92,158.15,2023-08-29 20:45,26,6.1,100,100,23,1,171.9,10,0.1,0,0.5,0.7,1,Pacific
Russia,Chi-Chi-Erh,51.7,94.45,2023-08-29 16:45,36.5,20.5,12,98,10,8,163.6,94.4,0.7,0.9,4.6,18.2,1,Asia
Monaco,Monaco,43.73,7.42,2023-08-29 11:45,22,20.2,73,50,10,6,213.6,70.8,3,0.8,0.8,1.2,1,Europe
Mongolia,Ulaanbaatar,47.92,106.92,2023-08-29 17:30,26,11.2,32,25,10,4,560.8,14,47.3,60.1,28.9,32.9,2,Asia
Montenegro,Podgorica,42.44,19.26,2023-08-29 11:45,25,3.6,65,50,10,5,277,105.9,0.3,2.8,11.9,12.1,1,Europe
Morocco,Rabat,34.03,-6.84,2023-08-29 10:30,24,11.2,78,0,5,6,217,85.8,0.9,1.6,8,23.9,1,Africa
Mozambique,Maputo,-25.97,32.59,2023-08-29 11:45,21,16.9,64,75,10,5,500.7,67.2,1.9,3,8.6,18.3,1,Africa
Myanmar,Pathein,16.78,94.73,2023-08-29 16:15,30,16.6,68,62,10,8,233.7,52.9,0.4,0.1,4,4.4,1,Asia
Namibia,Windhoek,-22.57,17.08,2023-08-29 11:45,20,6.1,43,0,10,7,347.1,107.3,0.7,0.5,22.4,31.8,2,Africa
Turkey,Yaren,39.55,27.62,2023-08-29 12:45,28,3.6,55,0,10,8,223.6,107.3,0.6,2.2,10.3,12,1,Europe
Nepal,Kathmandu,27.72,85.32,2023-08-29 15:30,28,11.2,58,75,8,5,480.7,89.4,2.3,2.5,32.3,35.2,2,Asia
Netherlands,Amsterdam,52.37,4.89,2023-08-29 11:30,19,15.1,73,25,10,5,237,58.7,20.6,3.8,5.7,7.2,1,Europe
New Zealand,Wellington,-41.3,174.78,2023-08-29 21:30,9,19.1,81,0,10,1,213.6,63.7,0.2,0.3,0.5,1.6,1,Pacific
Nicaragua,Managua,12.15,-86.27,2023-08-29 03:45,25,3.6,100,25,10,1,237,12,2,10.1,22.7,24.4,2,America
Niger,Niamey,13.52,2.12,2023-08-29 10:45,30,19.1,62,0,10,8,500.7,26.1,0.7,0.7,5,8,1,Africa
Nigeria,Abuja,9.18,7.18,2023-08-29 10:45,28,11.2,74,50,10,6,594.1,25.4,0.9,0.1,8.8,11.6,1,Africa
North Korea,Pyongyang,39.02,125.75,2023-08-29 18:45,22,10.1,88,83,10,5,460.6,14.7,42.8,78.2,17.2,19,2,Asia
Macedonia,Skopje,42,21.43,2023-08-29 11:30,30,3.6,43,25,10,8,243.7,104.4,2.1,21.5,25.2,29.4,2,Europe
Norway,Oslo,59.92,10.75,2023-08-29 11:30,12,29.9,94,75,10,4,196.9,26.8,16.3,13,5.3,6.4,1,Europe
Oman,Muscat,23.61,58.59,2023-08-29 13:45,33,24.1,80,0,9,8,180.2,81.5,0.5,0.9,38.2,150.3,2,Asia
Pakistan,Islamabad,33.7,73.17,2023-08-29 14:45,31.9,5.8,45,13,10,8,1442,277.5,31.9,6.1,88.4,94.5,4,Asia
Palau,Adkip,7.36,134.51,2023-08-29 18:45,29,19.1,84,75,14,1,183.6,27.2,0.1,0.1,1.9,5.4,1,Pacific
Bolivia,National,-11.18,-67.08,2023-08-29 05:45,22.5,3.6,57,16,10,1,640.9,28.3,0.8,0.2,51.3,51.5,3,America
Panama,Panama City,8.97,-79.53,2023-08-29 04:30,27,6.1,89,75,9,1,534.1,0.4,9.3,8.4,5.9,7.9,1,America
Papua New Guinea,Port Moresby,-9.46,147.19,2023-08-29 19:45,24.4,28.4,80,22,10,1,200.3,50.1,2.5,2.2,5.9,16.7,1,Pacific
Paraguay,Carreria,-21.55,-58.12,2023-08-29 05:45,22.8,4.7,40,99,10,1,300.4,12.5,0.5,0.1,5.2,5.5,1,America
Peru,Lima,-12.05,-77.05,2023-08-29 04:30,16.2,10.8,86,58,10,1,277,38.6,14.1,15.3,13.2,30.7,1,America
Philippines,Manila,14.6,120.98,2023-08-29 17:45,27,20.2,89,100,10,6,277,39.7,5.4,1.4,1.2,4.1,1,Asia
Poland,Warsaw,52.25,21,2023-08-29 11:45,22,6.8,83,75,10,7,203.6,65.8,1.8,1.1,1.9,2.4,1,Europe
Portugal,Lisbon,38.72,-9.13,2023-08-29 10:30,21,3.6,69,25,10,6,223.6,63.7,1.9,0.9,4.6,8.9,1,Europe
Qatar,Doha,25.29,51.53,2023-08-29 12:45,38,19.1,54,0,10,9,427.3,147.3,126.1,169.8,46.1,101.1,3,Asia
Romania,Bucharest,44.43,26.1,2023-08-29 12:30,35,16.9,32,0,10,9,220.3,104.4,1.6,1.4,5.8,6.7,1,Europe
Russia,Moscow,55.75,37.62,2023-08-29 12:30,16,15.1,68,75,10,3,287.1,25.8,35,23.4,4.5,6.3,1,Europe
Rwanda,Kigali,-1.95,30.06,2023-08-29 11:45,26,22,34,50,10,7,210.3,54.4,0.3,0.6,2.5,4,1,Africa
Saint Kitts and Nevis,Basseterre,17.3,-62.72,2023-08-29 05:45,28,16.9,84,0,10,1,247,14.8,0.7,0.3,1.2,3.2,1,America
Saint Lucia,Castries,14,-61,2023-08-29 05:45,27,25.9,89,50,10,1,191.9,20.7,0.1,0.1,2.3,6,1,America
Saint Vincent and the Grenadines,Kingstown,13.13,-61.22,2023-08-29 05:45,28.8,29.2,78,82,9,1,186.9,20.7,0.5,0.4,1.8,5.5,1,America
Samoa,Apia,-13.83,-171.73,2023-08-29 22:45,26,20.2,84,75,10,1,186.9,62.2,0.3,0.3,3.3,16.1,1,Pacific
San Marino,San Marino,43.93,12.45,2023-08-29 11:45,21,15.1,64,50,10,6,217,65.8,0.8,0.6,1.2,1.3,1,Europe
Belgium,'S-Gravenwezel,51.27,4.55,2023-08-29 11:45,17,6.8,77,25,10,5,223.6,46.5,17.8,4.8,5.5,7.9,1,Europe
Saudi Arabia,Riyadh,24.64,46.77,2023-08-29 12:30,42,9,6,0,10,10,253.7,160.2,30.9,79.2,59,211.6,3,Asia
Senegal,Dakar,14.67,-17.44,2023-08-29 09:45,27,6.8,89,50,10,6,300.4,33.6,0.7,0.6,8.9,10.1,1,Africa
Serbia,Belgrade,44.8,20.47,2023-08-29 11:30,24,19.1,65,25,10,5,243.7,91.6,3.1,4.4,14.1,15.4,1,Europe
Seychelles Islands,Victoria,-4.62,55.45,2023-08-29 13:30,26.3,35.3,85,96,10,6,190.3,38.3,0.2,0.6,4.1,8.5,1,Indian
Sierra Leone,Freetown,8.49,-13.23,2023-08-29 09:45,24,3.6,100,75,10,6,343.8,19,0.6,0.2,1.6,3.1,1,Africa
Singapore,Singapore,1.29,103.86,2023-08-29 17:30,31,11.2,59,75,10,6,694.3,44.7,41.5,30.3,23.6,26.2,2,Asia
Slovakia,Bratislava,48.15,17.12,2023-08-29 11:30,19,13,88,75,10,4,243.7,62.9,4.7,3,12.1,12.7,1,Europe
Slovenia,Ljubljana,46.06,14.51,2023-08-29 11:30,16,11.2,100,75,4,4,217,85.8,1.2,0.8,3,3.6,1,Europe
Solomon Islands,Honiara,-9.43,159.95,2023-08-29 20:45,27,6.8,79,75,10,1,186.9,41.8,1.4,1,1.3,2.8,1,Pacific
Somalia,Mogadishu,2.07,45.37,2023-08-29 12:45,29,28.1,84,75,10,7,186.9,30.4,0,0.2,7.8,16.2,1,Africa
South Africa,Pretoria,-25.75,28.19,2023-08-29 11:45,18,6.8,30,0,10,5,614.2,128.8,13.2,52.5,56.3,79.1,3,Africa
South Korea,Seoul,37.57,127,2023-08-29 18:30,23,6.8,94,100,10,1,307.1,35.8,16.6,5.7,4.9,5.7,1,Asia
Sudan,Juba,12.15,24.45,2023-08-29 11:45,31.2,15.8,43,3,10,8,273.7,22.7,0.3,0.2,8.1,39.6,1,Africa
Spain,Madrid,40.4,-3.68,2023-08-29 11:45,20,6.1,49,0,10,6,233.7,117.3,5.1,0.4,2.5,3.6,1,Europe
Sri Lanka,Colombo,6.93,79.85,2023-08-29 15:15,31,29.9,66,50,10,6,210.3,25,4.2,2.7,1.5,3.8,1,Asia
Sudan,Khartoum,15.59,32.53,2023-08-29 11:45,30.4,29.2,49,58,10,8,290.4,42.9,0.8,0.7,13,68.5,1,Africa
Suriname,Paramaribo,5.83,-55.17,2023-08-29 06:45,25,3.6,94,25,10,1,217,19.3,0.3,0.4,1,2.9,1,America
Sweden,Stockholm,59.33,18.05,2023-08-29 11:45,18,16.9,64,0,10,5,230.3,51.5,8.1,9.5,2.8,6.1,1,Europe
Switzerland,Bern,46.92,7.47,2023-08-29 11:30,14,3.6,77,75,10,4,207,57.2,3.4,1.3,4.1,4.2,1,Europe
Syria,Damascus,33.5,36.3,2023-08-29 12:45,32,19.1,30,50,10,8,213.6,127.3,2.3,3.8,6.9,9.7,1,Asia
Tajikistan,Dushanbe,38.56,68.77,2023-08-29 14:30,32,11.2,17,0,10,8,195.3,104.4,0.3,1.1,2,5.6,1,Asia
Tanzania,Dodoma,-6.18,35.75,2023-08-29 12:30,23,24.1,53,25,10,6,203.6,37.6,0.1,0.2,1.4,2.6,1,Africa
Thailand,Bangkok,13.75,100.52,2023-08-29 16:45,33,11.2,56,50,10,7,687.6,8.3,26.1,19.1,10,19.9,1,Asia
Indonesia,Murong Timor,-7.56,112.27,2023-08-29 16:45,33.5,13.7,30,7,10,8,547.4,147.3,6.3,10.3,41.1,54,3,Asia
Bulgaria,Lom,43.81,23.24,2023-08-29 12:45,31.3,7.2,31,11,10,8,217,86.6,0.7,0.7,7.5,8.4,1,Europe
Tonga,Nuku`Aloia,-21.13,-175.2,2023-08-29 22:45,21,15.1,78,75,10,1,200.3,75.8,0.3,0.5,1.2,5.5,1,Pacific
Trinidad and Tobago,Port Of Spain,10.65,-61.52,2023-08-29 05:30,26,3.6,89,25,10,1,203.6,9.7,5.6,0.8,2.1,5.5,1,America
Tunisia,Tunis,36.8,10.18,2023-08-29 10:45,29,24.1,40,50,10,7,203.6,85.8,1.1,0.9,2.4,8.5,1,Africa
Turkey,Ankara,39.93,32.86,2023-08-29 12:45,28,3.6,28,0,10,7,243.7,163.1,5.7,11.2,13.3,14.4,1,Europe
Turkmenistan,Ashgabat,37.95,58.38,2023-08-29 14:45,35,19.1,19,25,10,8,263.7,223.2,7.1,17.6,19,36.8,2,Asia
Tuvalu,Funafuti,-8.52,179.22,2023-08-29 21:45,29,9,89,50,10,1,158.6,29,0,0.1,1.6,6.8,1,Pacific
Uganda,Kampala,0.32,32.57,2023-08-29 12:45,25,24.1,69,50,10,6,323.8,45.8,0.8,1.2,4,7.4,1,Africa
Ukraine,Lviv,49.83,24,2023-08-29 12:30,29.4,12.6,41,2,10,7,208.6,70.1,0.5,1.2,13.3,16.2,1,Europe
United Arab Emirates,Abu Dhabi,24.47,54.37,2023-08-29 13:45,45,11.2,10,0,10,9,390.5,320.4,11.1,9.4,82.6,126.1,4,Asia
United Kingdom,London,51.52,-0.11,2023-08-29 10:45,18,13,68,0,10,5,277,57.2,14.6,10.1,4,6.1,1,Europe
United States of America,Washington Park,46.6,-120.49,2023-08-29 02:45,23.3,15.1,45,0,16,1,237,65.1,1.4,0.7,9.6,10.9,1,America
Uruguay,Montevideo,-34.86,-56.17,2023-08-29 06:30,7,11.2,93,0,10,1,290.4,26.5,5.7,5.1,2.8,5.4,1,America
Uzbekistan,Tashkent,41.32,69.25,2023-08-29 14:30,31,15.1,14,0,10,8,237,133,3.4,2,7.1,23.1,1,Asia
Vanuatu,Port Vila,-17.73,168.32,2023-08-29 20:45,22,19.1,100,100,10,1,190.3,62.9,0,0.2,4.8,10.4,1,Pacific
Venezuela,Caracas,10.5,-66.92,2023-08-29 05:45,25,11.2,79,75,10,1,814.4,0,40.4,40.5,25.6,27.2,2,America
Vietnam,Hanoi,21.03,105.85,2023-08-29 16:45,30,11.2,66,0,10,8,387.2,90.1,6.2,5.2,12.9,16.7,1,Asia
Yemen,Sanaa,15.35,44.21,2023-08-29 12:45,25.3,6.5,31,88,10,6,158.6,114.4,1.2,6.7,17.5,47.1,2,Asia
Zambia,Lusaka,-15.42,28.28,2023-08-29 11:45,19.8,19.1,28,3,10,5,881.2,75.8,1.5,3.5,17.3,23.6,2,Africa
Zimbabwe,Harare,-17.82,31.04,2023-08-29 11:45,19,16.9,25,0,10,5,417.2,75.8,2.2,8.7,17.4,21.5,2,Africa
Afghanistan,Kabul,34.52,69.18,2023-08-30 07:30,21.3,3.6,54,4,10,6,2964,57.2,20.9,0.8,31.7,39.3,2,Asia
Albania,Tirana,41.33,19.82,2023-08-30 05:00,22,6.1,73,75,10,1,217,75.8,0.9,0.4,4.5,6.6,1,Europe
Algeria,Algiers,36.76,3.05,2023-08-30 04:00,19,3.6,73,25,10,1,273.7,35.1,36.7,9.8,5.3,14,1,Africa
Andorra,Andorra La Vella,42.5,1.52,2023-08-30 04:45,2.9,7.6,91,25,10,1,191.9,35.1,0.9,0.1,0.8,1.1,1,Europe
Angola,Luanda,-8.84,13.23,2023-08-30 03:45,21,11.2,94,25,8,1,520.7,62.9,1.6,2,8.5,23.1,1,Africa
Antigua and Barbuda,Saint John's,17.12,-61.85,2023-08-29 22:45,29,16.9,75,50,10,1,240.3,23.6,0.6,0.6,7.7,14.2,1,America
Argentina,Buenos Aires,-34.59,-58.67,2023-08-29 23:45,11,15.1,82,0,10,1,327.1,21.5,16.8,2,2.9,4,1,America
Armenia,Yerevan,40.18,44.51,2023-08-30 07:00,18,6.1,60,0,10,5,198.6,29.3,4.7,0.4,2.2,2.5,1,Asia
Australia,Canberra,-35.28,149.22,2023-08-30 13:00,16,15.1,55,75,10,5,205.3,52.2,0.8,0.6,3.8,5.8,1,Australia
Austria,Vienna,48.2,16.37,2023-08-30 04:45,15,15.1,82,25,10,1,217,41.8,3.6,1.3,3,3.4,1,Europe
Azerbaijan,Baku,40.4,49.88,2023-08-30 06:45,23,22,57,0,10,1,240.3,77.3,2.9,0.9,0.9,2,1,Asia
Bahamas,Nassau,25.08,-77.35,2023-08-29 22:45,30,20.2,79,75,10,1,270.4,55.8,5.3,7.6,13.9,16.8,1,America
Bahrain,Manama,26.24,50.58,2023-08-30 05:45,33,9,67,0,10,1,300.4,100.1,5.7,4.3,28.7,73.1,2,Asia
Bangladesh,Dhaka,23.72,90.41,2023-08-30 08:45,30.6,3.6,61,10,10,8,2510.1,0.9,24,8.7,153.9,186.2,5,Asia
Barbados,Bridgetown,13.1,-59.62,2023-08-29 23:00,28,25.9,89,50,10,1,280.4,14.3,1.3,1,2.3,4.6,1,America
Belarus,Minsk,53.9,27.57,2023-08-30 05:45,20,6.8,88,0,10,1,230.3,45.8,5.1,7.5,8.3,8.9,1,Europe
Belgium,Brussels,50.83,4.33,2023-08-30 05:00,12,9,88,75,10,1,260.4,21.5,12.9,1.1,11.2,14,1,Europe
Belize,Belmopan,17.25,-88.77,2023-08-29 21:00,24.4,4.3,91,86,10,1,208.6,7.7,0.7,0.2,2.9,3.1,1,America
Benin,Porto-Novo,6.48,2.62,2023-08-30 04:00,26,19.1,89,50,10,1,433.9,29.3,1.2,0.6,6.3,12.4,1,Africa
Bhutan,Thimphu,27.48,89.6,2023-08-30 09:00,18.3,5.4,65,11,10,5,397.2,38.6,0.1,0.1,14.1,14.4,1,Asia
Bolivia,Sucre,-19.04,-65.26,2023-08-29 23:00,13,6.8,52,7,10,1,280.4,26.8,2.2,0.7,11.8,14.3,1,America
Bosnia and Herzegovina,Sarajevo,43.85,18.38,2023-08-30 04:45,16,3.6,88,25,10,1,166.9,18.1,1.3,0.1,1.7,2.6,1,Europe
Botswana,Gaborone,-24.65,25.91,2023-08-30 05:00,9,9,66,0,10,1,253.7,32.9,1.6,0.7,2.7,4.3,1,Africa
Brazil,Bras,-2.08,-58.17,2023-08-29 23:00,26.9,5.4,38,6,10,1,363.8,25.8,0.4,0.3,2.8,3.8,1,America
Brunei Darussalam,Bandar Seri Begawan,4.88,114.93,2023-08-30 11:00,32,13,75,75,10,8,330.5,39.7,1.6,1.3,2.3,2.5,1,Asia
Bulgaria,Sofia,42.68,23.32,2023-08-30 05:45,17,6.8,88,75,10,1,237,9.8,6.4,0.3,10.3,12.4,1,Europe
Burkina Faso,Ouagadougou,12.37,-1.52,2023-08-30 03:00,24.6,17.6,81,10,10,1,487.3,9.6,1.5,0.6,5,10.8,1,Africa
Burundi,Bujumbura,-3.38,29.36,2023-08-30 05:00,22.5,3.6,57,8,10,1,594.1,15.2,4.8,0.5,28.7,65.1,2,Africa
Madagascar,Ivory,-24.37,46.45,2023-08-30 06:00,13.2,4.7,83,0,10,1,185.3,14.1,0.3,0,2.4,3.9,1,Indian
Cape Verde,Praia,14.93,-23.51,2023-08-30 02:00,26,11.2,89,75,10,1,185.3,65.1,0.5,0.2,17.5,102.6,2,Atlantic
Cambodia,Phnom Penh,11.55,104.92,2023-08-30 10:00,32,13,67,25,10,8,287.1,31.8,1.8,1.4,1.8,6.5,1,Asia
Cameroon,Bafoussam,5.47,10.42,2023-08-30 04:00,16.9,4.7,97,59,2,1,580.8,8.1,2.4,0.2,14.7,19.7,1,Africa
Canada,Ottawa,45.42,-75.7,2023-08-29 22:45,20,9,88,75,24,1,227,61.5,1,0.1,2.7,2.9,1,America
Central African Republic,Bangui,4.37,18.58,2023-08-30 04:00,23,3.6,89,50,6,1,213.6,0.2,0.1,0,0.6,0.9,1,Africa
Chad,N'djamena,12.11,15.05,2023-08-30 04:00,24,16.9,89,50,7,1,467.3,20.4,0.7,0.4,8.5,10.8,1,Africa
Chile,Santiago,-33.45,-70.67,2023-08-29 22:45,13,16.9,58,0,10,1,6568.9,0,52.8,7.6,537.3,644.5,6,America
China,Beijing,39.93,116.39,2023-08-30 11:00,29,3.6,43,0,10,7,1335.1,31.5,154.9,167.9,150.9,186,5,Asia
Bulgaria,Bogot,43.32,24.7,2023-08-30 06:00,18.5,5.8,89,82,10,1,253.7,87.3,0.6,0.3,7.9,8.1,1,Europe
Comoros,Moroni,-11.7,43.24,2023-08-30 06:00,23.3,24.1,82,76,10,1,217,53.6,0.1,0.3,4.6,10.5,1,Indian
Congo,Brazzaville,-4.26,15.28,2023-08-30 04:00,24,6.8,78,0,8,1,767.7,18.6,4.3,0.6,38.4,51.3,2,Africa
Costa Rica,San Juan,9.97,-84.08,2023-08-29 21:00,23,6.8,94,75,0.5,1,574.1,19.3,21.6,17.9,37.4,38.6,2,America
Croatia,Zagreb,45.8,16,2023-08-30 04:45,16,6.8,88,75,10,1,217,47.2,2.7,0.3,2.6,2.8,1,Europe
Cuba,Havana,23.13,-82.36,2023-08-29 23:00,27,15.1,100,75,8,1,287.1,20.6,6.4,17.9,5.3,6.2,1,America
Cyprus,Nicosia,35.17,33.37,2023-08-30 06:00,22,6.8,73,25,10,1,253.7,52.2,4.1,4.1,20.8,33.8,2,Asia
Czech Republic,Prague,50.08,14.47,2023-08-30 04:45,13,11.2,94,100,10,1,217,32.5,7.9,4.1,4.6,5.5,1,Europe
Democratic Republic of Congo,Kinshasa,-4.3,15.3,2023-08-30 04:00,24,6.8,78,0,8,1,767.7,18.6,4.3,0.6,38.4,51.3,2,Africa
Denmark,Copenhagen,55.67,12.58,2023-08-30 04:45,14,6.1,82,75,10,1,243.7,16.1,9.7,0.6,3.8,5.7,1,Europe
Djibouti,Djibouti,11.6,43.15,2023-08-30 06:00,33,11.2,53,50,10,7,400.5,63.7,0.1,0.1,9.1,14.8,1,Africa
Dominica,Roseau,15.3,-61.4,2023-08-29 23:00,28.3,19.8,79,80,10,1,240.3,16.6,0.7,0.2,2.4,4.6,1,America
Dominican Republic,Santo Domingo,18.47,-69.9,2023-08-29 23:00,27,3.6,94,50,10,1,1014.7,0,18.3,12.9,20.5,32.3,2,America
Ecuador,Quito,-0.22,-78.5,2023-08-29 22:00,11.5,6.8,61,5,10,1,4272.5,0,98.7,68.7,32,37.7,2,America
Egypt,Cairo,30.05,31.25,2023-08-30 05:45,26,6.1,70,0,6,1,277,19.5,19.4,8,26.9,38.4,2,Africa
El Salvador,San Salvador,13.71,-89.2,2023-08-29 20:45,27,3.6,94,25,10,1,383.9,29,10.7,12,12.6,16.6,1,America
Equatorial Guinea,Malabo,3.75,8.78,2023-08-30 04:00,24.1,10.8,91,64,7,1,347.1,33.6,0,0.1,1.7,2,1,Africa
Eritrea,Asmara,15.33,38.93,2023-08-30 05:45,18.2,3.6,60,10,10,1,277,32.2,0.8,0.2,25.2,82.3,2,Africa
Estonia,Tallinn,59.43,24.73,2023-08-30 05:45,14,11.2,94,25,10,1,196.9,44,4.5,2.4,3.3,3.7,1,Europe
Swaziland,Mbabane,-26.32,31.13,2023-08-30 05:00,7.6,5.8,87,0,10,1,313.8,27.5,1.8,0.6,10.7,14.4,1,Africa
Ethiopia,Addis Ababa,9.03,38.7,2023-08-30 06:00,14,15.1,100,75,7,1,494,12.3,3.8,0.7,12.8,95.8,1,Africa
Fiji Islands,Suva,-18.13,178.42,2023-08-30 14:45,26,25.9,70,50,10,6,191.9,54.4,1.4,2,3.3,10.7,1,Pacific
Finland,Helsinki,60.18,24.93,2023-08-30 06:00,12,9,100,75,10,1,257,45.8,17.5,5.3,7.8,9.8,1,Europe
France,Paris,48.87,2.33,2023-08-30 04:45,14,3.6,88,100,10,1,300.4,15,13,1.1,9.7,12.6,1,Europe
Gabon,Libreville,0.38,9.45,2023-08-30 04:00,25,13,94,50,10,1,387.2,29.7,1.2,1.5,4.9,7.9,1,Africa
Gambia,Banjul,13.45,-16.58,2023-08-30 03:00,24,11.2,89,75,10,1,280.4,32.9,0.4,0.2,1.1,1.7,1,Africa
Georgia,Tbilisi,41.73,44.79,2023-08-30 06:45,20,6.1,83,0,10,1,140.2,5,2,0,3.5,5,1,Asia
Germany,Berlin,52.52,13.4,2023-08-30 04:45,14,9,94,0,10,1,208.6,48.6,3.8,1.6,3.9,4.3,1,Europe
Ghana,Accra,5.55,-0.22,2023-08-30 03:00,26,16.9,89,75,10,1,447.3,17.7,1.7,0.7,6.1,10.9,1,Africa
Greece,Athens,37.98,23.72,2023-08-30 06:00,26,9,48,25,10,1,343.8,72.2,9.3,8.1,27.2,31.7,2,Europe
Grenada,Saint George's,12.05,-61.75,2023-08-29 23:00,27,9,89,50,10,1,257,27.9,1.2,0.8,1.8,3.8,1,America
Guatemala,Guatemala City,14.62,-90.53,2023-08-29 20:45,18.2,6.8,97,75,10,1,600.8,15.9,19.4,64.9,36.5,43,2,America
Guinea,Conakry,9.51,-13.71,2023-08-30 03:00,25,3.6,94,75,10,1,367.2,24.3,0.3,0.1,0.8,2.3,1,Africa
Guinea-Bissau,Bissau,11.85,-15.58,2023-08-30 03:00,24.8,15.8,89,72,10,1,387.2,20.2,0.4,0.3,1,1.6,1,Africa
Guyana,Georgetown,6.8,-58.17,2023-08-29 23:00,26,3.6,94,25,10,1,250.3,10.6,4.5,3.8,1.6,6.3,1,America
Haiti,Port-Au-Prince,18.54,-72.34,2023-08-29 23:00,30,28.1,70,0,9,1,801.1,30.4,12.9,7.3,8.1,21.1,1,America
Vatican City,Vatican City,41.9,12.45,2023-08-30 05:00,17,9,88,50,10,1,313.8,17.5,10.2,0.4,5.4,7.1,1,Europe
Honduras,Tegucigalpa,14.1,-87.22,2023-08-29 21:00,25,3.6,74,25,10,1,907.9,0.1,12.7,1.3,9.4,30.1,1,America
Hungary,Budapest,47.5,19.08,2023-08-30 05:00,16,6.1,100,0,10,1,267,35.4,4.9,1.4,13.5,14.5,1,Europe
Iceland,Hella,63.83,-20.4,2023-08-30 03:00,10,18.7,91,91,10,1,247,57.9,0.2,0.3,1.3,2.5,1,Atlantic
India,New Delhi,28.6,77.2,2023-08-30 08:30,29,11.2,66,25,3.5,8,370.5,43.6,9.9,8.6,15.4,38.3,1,Asia
Indonesia,Jakarta,-6.21,106.85,2023-08-30 09:45,30,3.6,62,25,5,7,5928,4.6,82.3,69.6,243.3,317.8,5,Asia
Iran,Tehran,35.73,51.33,2023-08-30 06:30,22,19.1,57,50,10,1,440.6,8.1,85,29.3,14.8,39.6,1,Asia
Iraq,Baghdad,33.34,44.39,2023-08-30 05:45,28,4,35,0,10,1,233.7,74.4,3.5,3.7,12.6,41.1,1,Asia
Ireland,Dublin,53.33,-6.25,2023-08-30 03:45,11,20.2,94,75,10,1,233.7,51.5,2.5,1,2.9,6.4,1,Europe
Israel,Jerusalem,31.78,35.23,2023-08-30 05:45,25,11.2,79,25,10,1,297.1,31.5,31.9,3.4,15.4,29.6,1,Asia
Italy,Rome,41.9,12.48,2023-08-30 05:00,17,9,88,50,10,1,313.8,17.5,10.2,0.4,5.4,7.1,1,Europe
Jamaica,Norman Gardens,17.97,-76.75,2023-08-29 22:00,31,29.9,75,25,10,1,727.7,14.5,10.7,3.4,11.1,22.3,1,America
Japan,Tokyo,35.69,139.69,2023-08-30 12:00,34,11.2,53,25,10,8,200.3,20.4,23.3,21.2,4.8,6.3,1,Asia
Jordan,Amman,31.95,35.93,2023-08-30 06:00,21,3.6,69,0,7,1,303.8,37.2,16.1,4.4,19.2,34.2,2,Asia
Kazakhstan,Astana,51.18,71.43,2023-08-30 09:00,16,22,77,75,10,3,233.7,75.1,5.2,11.7,4.7,12.8,1,Asia
Kenya,Nairobi,-1.28,36.82,2023-08-30 05:45,16,19.1,82,75,10,1,620.8,35.1,5.8,6.6,8.7,21.4,1,Africa
Kiribati,Tarawa,-0.88,169.53,2023-08-30 15:00,28.5,10.1,76,76,10,6,150.2,13.4,0,0.1,0.7,3.5,1,Pacific
Kuwait,Kuwait City,29.37,47.96,2023-08-30 06:00,33.2,12.2,30,0,10,8,223.6,95.8,2.4,4.9,25.8,84.3,2,Asia
Kyrghyzstan,Bishkek,42.87,74.6,2023-08-30 09:00,23,3.6,21,20,10,6,337.1,20.9,24.3,8.5,5.8,8.3,1,Asia
Indonesia,Laos,-8.18,114.32,2023-08-30 10:00,27.5,7.9,65,10,10,7,787.7,51.5,10,3.4,20.4,37.5,2,Asia
Latvia,Riga,56.95,24.1,2023-08-30 06:00,16,6.8,88,0,10,1,213.6,50.8,4,1.6,2.9,3.3,1,Europe
Lebanon,Beirut,33.87,35.51,2023-08-30 05:45,28,6.8,62,75,8,1,227,95.8,1.6,2.8,13.1,27.6,1,Asia
Lesotho,Maseru,-29.32,27.48,2023-08-30 05:00,8,5.8,30,2,10,1,847.8,14.3,11.5,1.6,64.7,74.4,3,Africa
Liberia,Monrovia,6.31,-10.8,2023-08-30 03:00,23.3,6.8,96,100,5,1,223.6,44.4,0.2,0.2,1.5,1.9,1,Africa
Thailand,Nan,18.78,100.78,2023-08-30 10:00,26,3.6,94,75,10,5,343.8,7,3.6,0.8,4.1,4.7,1,Asia
Liechtenstein,Vaduz,47.13,9.52,2023-08-30 05:00,12,3.6,100,100,10,1,212,26.8,10.3,1.9,5.5,6.6,1,Europe
Lithuania,Vilnius,54.68,25.32,2023-08-30 05:45,22,15.1,73,25,10,1,217,48.6,1.7,1.7,7.6,8.5,1,Europe
Luxembourg,Luxembourg,49.61,6.13,2023-08-30 05:00,11,3.6,100,50,10,1,186.9,1.5,17,1.1,6.1,7.6,1,Europe
Madagascar,Antananarivo,-18.92,47.52,2023-08-30 06:00,14,20.2,77,75,10,1,267,52.9,0.7,0.8,2.1,4.6,1,Indian
Malawi,Lilongwe,-13.98,33.78,2023-08-30 05:00,12.3,12.2,83,13,10,1,403.9,44.7,1.4,0.6,4.4,6.1,1,Africa
Malaysia,Kuala Lumpur,3.17,101.7,2023-08-30 11:00,28,3.6,79,25,10,7,3418,4.4,78.8,57.2,51.1,60.1,3,Asia
Maldives,Farukolhufunadhoo,6.15,73.27,2023-08-30 08:00,27.7,17.6,72,48,10,7,173.6,23.6,0.5,0.3,1,2.4,1,Indian
Mali,Bamako,12.65,-8,2023-08-30 03:00,23,3.6,100,25,10,1,1108.2,1.3,6.1,1.3,42.1,47.7,3,Africa
Malta,Valletta,35.9,14.51,2023-08-30 04:45,23,11.2,69,0,10,1,200.3,88.7,0.4,0.7,3.2,13.2,1,Europe
Marshall Islands,Majuro,7.1,171.38,2023-08-30 15:00,31,22,71,100,24,6,161.9,29.7,0,0.1,1.8,4.8,1,Pacific
Mauritania,Nouakchott,18.09,-15.98,2023-08-30 03:00,27.8,17.6,78,90,7,1,320.4,42.9,1.9,2,14.9,40.7,1,Africa
Mauritius,Port Louis,-20.16,57.5,2023-08-30 07:00,22,13,78,50,10,6,223.6,52.2,3,2.8,5.8,10.5,1,Indian
Mexico,Mexico City,19.43,-99.13,2023-08-29 21:00,21,19.1,49,25,16,1,337.1,40.1,17.8,14.7,6.6,10.4,1,America
Micronesia,Palikir,6.92,158.15,2023-08-30 14:00,28,11.2,89,100,24,6,158.6,9.2,0,0,0.5,0.8,1,Pacific
Russia,Chi-Chi-Erh,51.7,94.45,2023-08-30 10:00,21.6,15.1,63,27,10,6,175.2,25.4,1.1,0.9,1.7,1.9,1,Asia
Monaco,Monaco,43.73,7.42,2023-08-30 05:00,20,22,68,75,10,1,183.6,20,2.9,0.4,2.6,3.2,1,Europe
Mongolia,Ulaanbaatar,47.92,106.92,2023-08-30 11:00,18,3.6,60,0,10,5,220.3,36.5,9.3,7.1,5.5,7.6,1,Asia
Montenegro,Podgorica,42.44,19.26,2023-08-30 05:00,18,13,94,100,10,1,190.3,41.8,1.7,0.4,3,3.9,1,Europe
Morocco,Rabat,34.03,-6.84,2023-08-30 04:00,21,9,100,50,5,1,213.6,88,0.9,1.6,10,46.7,1,Africa
Mozambique,Maputo,-25.97,32.59,2023-08-30 05:00,17,6.8,88,75,10,1,807.8,18.4,5.7,0.8,26.5,49.8,2,Africa
Myanmar,Pathein,16.78,94.73,2023-08-30 09:30,29.2,8.6,73,65,10,6,383.9,36.5,2,0.5,21.3,24.3,2,Asia
Namibia,Windhoek,-22.57,17.08,2023-08-30 05:00,16,19.1,48,0,10,1,313.8,41.8,0.8,1.2,15.5,21.1,2,Africa
Turkey,Yaren,39.55,27.62,2023-08-30 06:00,18,3.6,83,0,10,1,293.7,20.2,9.1,1,25,28.6,2,Europe
Nepal,Kathmandu,27.72,85.32,2023-08-30 08:30,23,3.6,83,75,6,5,1508.7,24.7,14.6,1.9,77.4,103.6,4,Asia
Netherlands,Amsterdam,52.37,4.89,2023-08-30 05:00,15,13,82,25,10,1,260.4,60.1,13.2,3.3,6.1,7.9,1,Europe
New Zealand,Wellington,-41.3,174.78,2023-08-30 15:00,13,33.1,72,50,10,3,213.6,60.1,0.1,0.2,1.2,2,1,Pacific
Nicaragua,Managua,12.15,-86.27,2023-08-29 20:45,27,3.6,100,50,10,1,297.1,9.6,5.7,11,13.2,16.4,1,America
Niger,Niamey,13.52,2.12,2023-08-30 04:00,29,19.1,75,0,10,1,420.6,23.3,0.4,0.2,4.8,6,1,Africa
Nigeria,Abuja,9.18,7.18,2023-08-30 04:00,23,11.2,94,75,10,1,654.2,28.6,0.9,0.2,13.5,14.1,1,Africa
North Korea,Pyongyang,39.02,125.75,2023-08-30 12:00,24.9,7.9,69,84,10,5,250.3,77.3,1.2,4.8,9.4,12.3,1,Asia
Macedonia,Skopje,42,21.43,2023-08-30 04:45,16,3.6,88,25,10,1,320.4,70.8,4.2,10.9,22.2,23.7,2,Europe
Norway,Oslo,59.92,10.75,2023-08-30 04:45,13,13,94,25,0,1,243.7,31.8,10.9,6.3,2.4,3.6,1,Europe
Oman,Muscat,23.61,58.59,2023-08-30 07:00,30,6.8,89,0,7,7,185.3,64.4,2.2,0.9,44.3,142.6,3,Asia
Pakistan,Islamabad,33.7,73.17,2023-08-30 07:45,25.7,7.6,63,8,10,7,647.5,98.7,8.7,5.1,46.3,53.2,3,Asia
Palau,Adkip,7.36,134.51,2023-08-30 12:00,31,15.1,71,75,21,1,203.6,12.5,0.1,0.1,0.8,2.1,1,Pacific
Bolivia,National,-11.18,-67.08,2023-08-29 23:00,29,3.6,45,17,10,1,514,31.5,0.5,0.1,19.1,19.3,2,America
Panama,Panama City,8.97,-79.53,2023-08-29 22:00,29,6.8,84,50,10,1,801.1,4.7,19,11.8,8.6,11.4,1,America
Papua New Guinea,Port Moresby,-9.46,147.19,2023-08-30 13:00,30,19.1,55,25,10,7,207,69.4,1.2,1.7,3,11.5,1,Pacific
Paraguay,Carreria,-21.55,-58.12,2023-08-29 23:00,22.8,6.5,58,40,10,1,370.5,25.8,0.7,0.1,12,12.3,1,America
Peru,Lima,-12.05,-77.05,2023-08-29 22:00,17.2,16.6,81,34,10,1,370.5,38.6,18.5,10.3,12.6,25.8,1,America
Philippines,Manila,14.6,120.98,2023-08-30 11:00,31,25.9,75,75,10,6,330.5,47.2,6.6,1.9,2.2,5.9,1,Asia
Poland,Warsaw,52.25,21,2023-08-30 05:00,18,13,94,75,9,1,253.7,28.6,5.2,2.2,19.1,20,2,Europe
Portugal,Lisbon,38.72,-9.13,2023-08-30 04:00,19,11.2,78,25,10,1,217,65.8,1.2,0.7,3.6,8.3,1,Europe
Qatar,Doha,25.29,51.53,2023-08-30 06:00,34,15.1,75,0,10,8,263.7,57.2,32.6,36.2,35.7,67.3,2,Asia
Romania,Bucharest,44.43,26.1,2023-08-30 06:00,22,6.8,65,25,10,1,250.3,50.8,4.5,0.8,12.4,13.4,1,Europe
Russia,Moscow,55.75,37.62,2023-08-30 05:45,14,11.2,88,100,9,1,377.2,0,24.7,13.8,16.4,20.3,2,Europe
Rwanda,Kigali,-1.95,30.06,2023-08-30 05:00,18,9,60,50,10,1,680.9,20.2,8.1,1.3,31.5,46.4,2,Africa
Saint Kitts and Nevis,Basseterre,17.3,-62.72,2023-08-29 23:00,29,20.2,84,0,10,1,250.3,16.1,0.4,0.2,3.2,8.3,1,America
Saint Lucia,Castries,14,-61,2023-08-29 23:00,28,9,84,75,10,1,208.6,22.2,0.1,0.2,2.7,5.7,1,America
Saint Vincent and the Grenadines,Kingstown,13.13,-61.22,2023-08-29 23:00,28.9,31,75,89,9,1,267,18.6,0.2,0.1,2.5,5.9,1,America
Samoa,Apia,-13.83,-171.73,2023-08-30 16:00,30,9,75,75,10,6,185.3,52.9,0.2,0.3,3,13,1,Pacific
San Marino,San Marino,43.93,12.45,2023-08-30 05:00,18,9,73,50,10,1,237,54.4,3.8,1,2.6,2.9,1,Europe
Belgium,'S-Gravenwezel,51.27,4.55,2023-08-30 04:45,13,6.8,82,75,10,1,297.1,34.3,23.7,6.6,9.8,12.8,1,Europe
Saudi Arabia,Riyadh,24.64,46.77,2023-08-30 05:45,30,11.2,33,0,10,1,190.3,98.7,5.1,19.3,71.6,375,4,Asia
Senegal,Dakar,14.67,-17.44,2023-08-30 03:00,27.8,27.7,80,54,10,1,263.7,34.3,0.6,0.4,4.3,5,1,Africa
Serbia,Belgrade,44.8,20.47,2023-08-30 05:00,18,6.1,88,0,10,1,273.7,20,7.5,1,19.2,20.8,2,Europe
Seychelles Islands,Victoria,-4.62,55.45,2023-08-30 07:00,26,19.1,79,25,10,6,193.6,54.4,0.2,0.6,6.2,10,1,Indian
Sierra Leone,Freetown,8.49,-13.23,2023-08-30 03:00,23.4,13.3,96,100,5,1,347.1,21.3,0.5,0.1,1.2,1.8,1,Africa
Singapore,Singapore,1.29,103.86,2023-08-30 10:45,29,6.1,79,75,10,6,694.3,1.3,32.9,32.4,10.5,12.6,1,Asia
Slovakia,Bratislava,48.15,17.12,2023-08-30 05:00,15,24.1,88,50,10,1,213.6,47.2,3.1,0.8,2.6,3,1,Europe
Slovenia,Ljubljana,46.06,14.51,2023-08-30 05:00,14,3.6,94,100,10,1,203.6,41.8,2.3,0.9,2.3,2.6,1,Europe
Solomon Islands,Honiara,-9.43,159.95,2023-08-30 14:00,27.7,4.3,77,51,10,6,196.9,36.1,1.2,1,1,1.2,1,Pacific
Somalia,Mogadishu,2.07,45.37,2023-08-30 06:00,24.1,27.4,84,88,10,5,191.9,34.7,0.1,0.3,10.4,18,1,Africa
South Africa,Pretoria,-25.75,28.19,2023-08-30 04:45,9,11.2,76,0,10,1,367.2,46.5,5.1,8,9.4,16.8,1,Africa
South Korea,Seoul,37.57,127,2023-08-30 12:00,25,6.1,79,75,10,6,654.2,47.2,80.9,37.2,65.2,70.5,3,Asia
Sudan,Juba,12.15,24.45,2023-08-30 05:00,24,13.7,76,88,9,1,253.7,14.8,0.3,0.1,8.9,22.2,1,Africa
Spain,Madrid,40.4,-3.68,2023-08-30 05:00,18,6.8,45,0,10,1,253.7,30.8,17.1,0.3,1.4,2.4,1,Europe
Sri Lanka,Colombo,6.93,79.85,2023-08-30 08:30,26,11.2,94,50,9,6,270.4,26.1,9.3,3.8,2.4,4.8,1,Asia
Sudan,Khartoum,15.59,32.53,2023-08-30 05:00,26.2,48.2,70,46,10,1,287.1,33.3,0.8,0.5,10.7,31.6,1,Africa
Suriname,Paramaribo,5.83,-55.17,2023-08-30 00:00,27,6.8,89,25,10,1,287.1,23.3,0.1,0.1,2,7.3,1,America
Sweden,Stockholm,59.33,18.05,2023-08-30 05:00,14,3.6,94,75,10,1,213.6,47.9,8.7,6.2,5.7,7.2,1,Europe
Switzerland,Bern,46.92,7.47,2023-08-30 04:45,10,6.8,100,100,10,1,210.3,28.6,7.4,1.9,5.9,6.4,1,Europe
Syria,Damascus,33.5,36.3,2023-08-30 06:00,20,29.9,88,0,10,1,267,25,12,4.2,16.6,28.4,2,Asia
Tajikistan,Dushanbe,38.56,68.77,2023-08-30 07:45,20,3.6,56,0,9,6,188.6,44.7,1.7,2.2,1.6,2.7,1,Asia
Tanzania,Dodoma,-6.18,35.75,2023-08-30 06:00,18,15.1,68,25,10,1,263.7,40.1,0.5,0.2,3.3,4.4,1,Africa
Thailand,Bangkok,13.75,100.52,2023-08-30 10:00,31,6.8,71,25,10,8,1014.7,2.9,23.7,24.8,16,34.3,2,Asia
Indonesia,Murong Timor,-7.56,112.27,2023-08-30 10:00,30.1,3.6,49,0,10,8,507.4,66.5,5.7,5.1,22.7,36.7,2,Asia
Bulgaria,Lom,43.81,23.24,2023-08-30 06:00,17.8,5.8,92,84,10,1,250.3,61.5,1.1,0.3,5.7,6,1,Europe
Tonga,Nuku`Aloia,-21.13,-175.2,2023-08-30 16:00,26,28.1,65,75,10,5,193.6,74.4,0.2,0.5,2,10.6,1,Pacific
Trinidad and Tobago,Port Of Spain,10.65,-61.52,2023-08-29 23:00,25,3.6,94,25,10,1,270.4,5.4,8.4,0.9,0.7,1.1,1,America
Tunisia,Tunis,36.8,10.18,2023-08-30 04:00,22,6.1,78,50,10,1,220.3,30,2.6,0.6,5.2,14.4,1,Africa
Turkey,Ankara,39.93,32.86,2023-08-30 06:00,18,3.6,56,0,10,1,350.5,4.9,30.2,7.6,13,14.9,1,Europe
Turkmenistan,Ashgabat,37.95,58.38,2023-08-30 08:00,24,19.1,57,100,10,7,240.3,85.8,1.8,1.2,9,25.4,1,Asia
Tuvalu,Funafuti,-8.52,179.22,2023-08-30 15:00,28.7,22.3,77,64,10,6,166.9,11,0,0.1,1.7,7.3,1,Pacific
Uganda,Kampala,0.32,32.57,2023-08-30 06:00,21,6.1,83,50,10,1,554.1,4,3.7,0.8,33.7,48.5,2,Africa
Ukraine,Lviv,49.83,24,2023-08-30 05:45,17.3,3.6,95,70,10,1,210.3,49.4,1.7,1.8,4.1,4.9,1,Europe
United Arab Emirates,Abu Dhabi,24.47,54.37,2023-08-30 07:00,32,6.8,46,0,10,8,240.3,77.3,13.2,9.3,32.9,81.7,2,Asia
United Kingdom,London,51.52,-0.11,2023-08-30 04:00,11,9,94,50,10,1,247,50.8,8.7,5.1,3.4,6.1,1,Europe
United States of America,Washington Park,46.6,-120.49,2023-08-29 20:00,22.2,11.2,40,100,16,1,168.6,60.1,1.2,0.6,0.6,0.7,1,America
Uruguay,Montevideo,-34.86,-56.17,2023-08-30 00:00,9,11.2,100,0,7,1,307.1,25.4,6,3.4,3.3,6.1,1,America
Uzbekistan,Tashkent,41.32,69.25,2023-08-30 08:00,22,4,41,25,10,7,474,10.4,43.9,5.1,6.3,11.4,1,Asia
Vanuatu,Port Vila,-17.73,168.32,2023-08-30 14:00,24,20.2,89,75,1,5,181.9,62.9,0,0.1,2.7,6.7,1,Pacific
Venezuela,Caracas,10.5,-66.92,2023-08-29 23:00,31,9,79,75,10,1,487.3,23.6,23,28.4,8.5,11.1,1,America
Vietnam,Hanoi,21.03,105.85,2023-08-30 10:00,31,15.1,55,0,10,8,654.2,75.8,14.1,8.7,35,48.8,2,Asia
Yemen,Sanaa,15.35,44.21,2023-08-30 06:00,18.8,4,40,43,10,5,230.3,41.8,21.8,39.6,26.9,65.8,2,Asia
Zambia,Lusaka,-15.42,28.28,2023-08-30 05:00,12.5,17.3,67,3,10,1,988,43.6,4.2,4,7.3,12.7,1,Africa
Zimbabwe,Harare,-17.82,31.04,2023-08-30 05:00,8.1,13.7,80,4,10,1,270.4,36.8,3.5,5.4,6.6,8.6,1,Africa
Afghanistan,Kabul,34.52,69.18,2023-08-31 04:15,18.1,3.6,40,0,10,1,754.4,46.5,6.4,0.4,7.7,12.8,1,Asia
Albania,Tirana,41.33,19.82,2023-08-31 01:45,20,3.6,100,75,10,1,201.9,72.2,1.1,1.1,4.2,7.8,1,Europe
Algeria,Algiers,36.76,3.05,2023-08-31 00:45,23,4,78,25,10,1,223.6,81.5,5.9,1.9,1.9,4.5,1,Africa
Andorra,Andorra La Vella,42.5,1.52,2023-08-31 01:45,5.1,3.6,95,46,2,1,153.5,27.2,1.6,0.1,1,1.3,1,Europe
Angola,Luanda,-8.84,13.23,2023-08-31 00:45,22,6.8,88,75,8,1,587.5,66.5,2.8,2.5,8.9,20.8,1,Africa
Antigua and Barbuda,Saint John's,17.12,-61.85,2023-08-30 19:45,29,15.1,79,50,10,1,195.3,25.4,0.8,0.8,4.5,8.1,1,America
Argentina,Buenos Aires,-34.59,-58.67,2023-08-30 20:45,16,3.6,51,0,10,1,350.5,42.6,12.9,3.2,10.8,13,1,America
Armenia,Yerevan,40.18,44.51,2023-08-31 03:45,21,9,46,0,10,1,195.3,20.6,2.6,0.2,1.6,1.8,1,Asia
Australia,Canberra,-35.28,149.22,2023-08-31 09:45,8,6.8,100,75,10,3,210.3,33.6,5.8,0.7,1.1,1.7,1,Australia
Austria,Vienna,48.2,16.37,2023-08-31 01:45,17,13,63,0,10,1,212,21.5,8,0.2,2.4,3.5,1,Europe
Azerbaijan,Baku,40.4,49.88,2023-08-31 03:45,22.5,12.6,57,18,10,1,247,55.8,3.8,1.1,1.9,5.8,1,Asia
Bahamas,Nassau,25.08,-77.35,2023-08-30 19:45,31,13,75,75,10,8,403.9,42.2,1.3,1.3,2.5,5.2,1,America
Bahrain,Manama,26.24,50.58,2023-08-31 02:45,34,13,71,0,10,1,247,150.2,0.1,4.6,40.8,75,3,Asia
Bangladesh,Dhaka,23.72,90.41,2023-08-31 05:45,29.6,4,70,28,10,1,761,29,23.3,11.9,82.6,88.2,4,Asia
Barbados,Bridgetown,13.1,-59.62,2023-08-30 19:45,28,24.1,89,50,10,1,237,21.5,3.3,1.7,5.8,16.4,1,America
Belarus,Minsk,53.9,27.57,2023-08-31 02:45,18,15.1,100,37,10,1,233.7,52.2,2.6,4.1,7,7.2,1,Europe
Belgium,Brussels,50.83,4.33,2023-08-31 01:45,11,13,94,0,10,1,263.7,39.3,13.2,1,5.9,10,1,Europe
Belize,Belmopan,17.25,-88.77,2023-08-30 17:45,29,6.1,89,25,10,6,233.7,11.4,0.2,0.2,1.6,1.7,1,America
Benin,Porto-Novo,6.48,2.62,2023-08-31 00:45,26,19.1,89,50,10,1,494,36.1,2.6,1.6,10.9,19.1,1,Africa
Bhutan,Thimphu,27.48,89.6,2023-08-31 05:45,10.9,3.6,97,68,2,1,360.5,30.8,0.3,0.1,10,10.3,1,Asia
Bolivia,Sucre,-19.04,-65.26,2023-08-30 19:45,19.5,9.4,34,0,10,1,313.8,22.2,1.4,0.4,4.7,5.9,1,America
Bosnia and Herzegovina,Sarajevo,43.85,18.38,2023-08-31 01:45,13,3.6,100,0,10,1,166.9,11.6,1,0.1,1.4,2.3,1,Europe
Botswana,Gaborone,-24.65,25.91,2023-08-31 01:45,10,15.1,58,0,10,1,410.6,40.4,6.3,0.6,26.5,28.4,2,Africa
Brazil,Bras,-2.08,-58.17,2023-08-30 19:45,32.3,4.7,30,15,10,1,380.5,40.8,0.3,0.3,2,2.7,1,America
Brunei Darussalam,Bandar Seri Begawan,4.88,114.93,2023-08-31 07:45,26,6.8,94,75,10,7,277,4.5,4.1,2.5,1.9,2.2,1,Asia
Bulgaria,Sofia,42.68,23.32,2023-08-31 02:45,16,3.6,77,25,10,1,207,13.2,4.6,0.2,6.5,9.5,1,Europe
Burkina Faso,Ouagadougou,12.37,-1.52,2023-08-30 23:45,24.1,17.6,86,79,9,1,1188.3,0.9,8.5,2.9,43.6,70.5,3,Africa
Burundi,Bujumbura,-3.38,29.36,2023-08-31 01:45,22.6,3.6,55,6,10,1,894.6,17,7.2,0.9,43.5,86.9,3,Africa
Madagascar,Ivory,-24.37,46.45,2023-08-31 02:45,15.8,7.6,72,0,10,1,193.6,52.9,0.1,0.1,1.1,2.2,1,Indian
Cape Verde,Praia,14.93,-23.51,2023-08-30 22:45,27,15.1,89,75,10,1,208.6,49.4,0.9,0.2,9.8,12.4,1,Atlantic
Cambodia,Phnom Penh,11.55,104.92,2023-08-31 06:45,28,3.6,84,75,10,7,367.2,21.3,3.1,1.6,2.8,7.7,1,Asia
Cameroon,Bafoussam,5.47,10.42,2023-08-31 00:45,17.1,5.4,97,61,7,1,427.3,12.2,1.6,0.3,4.5,7.3,1,Africa
Canada,Ottawa,45.42,-75.7,2023-08-30 19:45,16,28.1,77,75,24,5,217,31.5,0.4,0,0.5,0.5,1,America
Central African Republic,Bangui,4.37,18.58,2023-08-31 00:45,25,3.6,89,0,10,1,297.1,0,0.2,0.1,7.6,8.1,1,Africa
Chad,N'djamena,12.11,15.05,2023-08-31 00:45,27,6.1,89,0,10,1,554.1,12.3,1.4,0.7,20.4,30.7,2,Africa
Chile,Santiago,-33.45,-70.67,2023-08-30 19:45,14,13,63,0,10,1,2990.7,3.4,56.2,7.8,180.3,232.6,5,America
China,Beijing,39.93,116.39,2023-08-31 07:45,21,6.8,94,0,10,4,1121.5,0.2,33.6,38.6,142.2,171.5,4,Asia
Bulgaria,Bogot,43.32,24.7,2023-08-31 02:45,20.2,4.3,69,13,10,1,267,38.6,3.7,0.3,9.8,11,1,Europe
Comoros,Moroni,-11.7,43.24,2023-08-31 02:45,20.8,11.9,71,2,10,1,208.6,41.5,0.4,0.3,2.5,7.9,1,Indian
Congo,Brazzaville,-4.26,15.28,2023-08-31 00:45,27.1,10.8,48,8,10,1,667.6,32.2,2.2,0.3,17.6,27.1,2,Africa
Costa Rica,San Juan,9.97,-84.08,2023-08-30 17:45,25,9,83,75,10,5,407.2,65.1,9.2,13.1,20.7,21.7,2,America
Croatia,Zagreb,45.8,16,2023-08-31 01:45,17,9,88,75,10,1,220.3,24.7,6.3,0.2,4.1,5.2,1,Europe
Cuba,Havana,23.13,-82.36,2023-08-30 19:45,31,16.9,71,50,9,7,360.5,28.6,7.2,18.4,5.4,8.5,1,America
Cyprus,Nicosia,35.17,33.37,2023-08-31 02:45,25,3.6,83,0,10,1,257,88,0.7,1,26.9,39.5,2,Asia
Czech Republic,Prague,50.08,14.47,2023-08-31 01:45,14,15.1,88,25,10,1,250.3,19.1,12.2,1.4,6.1,8,1,Europe
Democratic Republic of Congo,Kinshasa,-4.3,15.3,2023-08-31 00:45,26.6,10.1,50,8,10,1,667.6,32.2,2.2,0.3,17.6,27.1,2,Africa
Denmark,Copenhagen,55.67,12.58,2023-08-31 01:45,14,4,88,0,10,1,260.4,70.1,3.8,1.1,5.2,5.6,1,Europe
Djibouti,Djibouti,11.6,43.15,2023-08-31 02:45,32.5,13,55,10,10,1,277,35.4,1,0.3,13.8,35.1,1,Africa
Dominica,Roseau,15.3,-61.4,2023-08-30 19:45,26,4,100,50,10,1,217,21.6,1.8,0.4,4.3,5.9,1,America
Dominican Republic,Santo Domingo,18.47,-69.9,2023-08-30 19:45,29,9,84,50,10,1,774.4,0.2,25,13.5,10.4,14.7,1,America
Ecuador,Quito,-0.22,-78.5,2023-08-30 18:45,17.5,8.3,55,85,10,4,2002.7,40.8,98.7,31.5,31.7,34.5,2,America
Egypt,Cairo,30.05,31.25,2023-08-31 02:45,28,9,62,0,10,1,297.1,39,14.6,8.9,36.5,48.8,2,Africa
El Salvador,San Salvador,13.71,-89.2,2023-08-30 17:45,30,6.8,79,25,10,6,413.9,15.4,11.5,10.5,18.7,22.1,2,America
Equatorial Guinea,Malabo,3.75,8.78,2023-08-31 00:45,24.6,14.4,87,48,10,1,420.6,25,0.1,0.1,1,1.5,1,Africa
Eritrea,Asmara,15.33,38.93,2023-08-31 02:45,17.8,6.5,65,74,10,1,297.1,37.6,1.2,0.3,32.5,111.8,2,Africa
Estonia,Tallinn,59.43,24.73,2023-08-31 02:45,18,6.8,100,75,10,1,220.3,33.3,2.1,0.9,7.9,8,1,Europe
Swaziland,Mbabane,-26.32,31.13,2023-08-31 01:45,10.5,5,77,0,10,1,440.6,49.4,3.6,1.3,23.6,26.2,2,Africa
Ethiopia,Addis Ababa,9.03,38.7,2023-08-31 02:45,13,9,100,75,10,1,4592.9,10.4,10.3,2.6,161,318.1,5,Africa
Fiji Islands,Suva,-18.13,178.42,2023-08-31 11:45,26,20.2,79,75,10,5,195.3,50.1,1.4,1.8,4.1,6.4,1,Pacific
Finland,Helsinki,60.18,24.93,2023-08-31 02:45,18,6.8,100,100,7,1,227,27.2,7.3,2.3,6.9,7.9,1,Europe
France,Paris,48.87,2.33,2023-08-31 01:45,14,3.6,72,100,10,1,293.7,40.4,14.9,1.9,7,10.4,1,Europe
Gabon,Libreville,0.38,9.45,2023-08-31 00:45,25,15.1,89,50,10,1,480.7,33.3,1.3,1.5,7.1,12.1,1,Africa
Gambia,Banjul,13.45,-16.58,2023-08-30 23:45,25,3.6,100,75,10,1,337.1,21.8,0.5,0.2,1.2,1.9,1,Africa
Georgia,Tbilisi,41.73,44.79,2023-08-31 03:45,19,3.6,83,0,10,1,223.6,47.2,1.9,0.6,2.9,3.7,1,Asia
Germany,Berlin,52.52,13.4,2023-08-31 01:45,14,6.8,88,0,10,1,263.7,12.7,23.3,3,7,8.6,1,Europe
Ghana,Accra,5.55,-0.22,2023-08-30 23:45,26,15.1,89,100,10,1,440.6,31.5,4.4,5.1,10.2,18.4,1,Africa
Greece,Athens,37.98,23.72,2023-08-31 02:45,26,3.6,42,0,10,1,237,98.7,4,7.4,8.3,12,1,Europe
Grenada,Saint George's,12.05,-61.75,2023-08-30 19:45,29,20.2,84,25,10,1,260.4,19.7,1.4,0.8,2.5,6.3,1,America
Guatemala,Guatemala City,14.62,-90.53,2023-08-30 17:45,25,11.2,61,25,10,5,1188.3,40.1,30.9,109.7,133.9,141.4,4,America
Guinea,Conakry,9.51,-13.71,2023-08-30 23:45,27,3.6,89,50,10,1,260.4,37.9,0.3,0.1,1.5,4.7,1,Africa
Guinea-Bissau,Bissau,11.85,-15.58,2023-08-30 23:45,25,3.6,94,50,6,1,270.4,20,0.8,0.5,2.4,3.6,1,Africa
Guyana,Georgetown,6.8,-58.17,2023-08-30 19:45,28,6.8,84,25,10,1,223.6,11.6,4.9,4.2,1.4,5.8,1,America
Haiti,Port-Au-Prince,18.54,-72.34,2023-08-30 19:45,27.7,3.6,63,100,10,6,423.9,26.5,11.7,6.7,4.6,9.5,1,America
Vatican City,Vatican City,41.9,12.45,2023-08-31 01:45,20,9,73,25,10,1,474,2,21.3,0.5,14.1,19,1,Europe
Honduras,Tegucigalpa,14.1,-87.22,2023-08-30 17:45,29,6.1,55,25,10,5,567.4,62.9,7.4,3.6,15.8,21.2,2,America
Hungary,Budapest,47.5,19.08,2023-08-31 01:45,15,6.8,94,0,10,1,403.9,4,52.8,9.9,23.7,25.8,2,Europe
Iceland,Hella,63.83,-20.4,2023-08-30 23:45,10.2,19.1,88,100,10,1,237,64.4,0.3,0.3,0.5,1.2,1,Atlantic
India,New Delhi,28.6,77.2,2023-08-31 05:15,29,3.6,70,25,3.5,1,701,10,24.3,8.5,47.4,97.9,3,Asia
Indonesia,Jakarta,-6.21,106.85,2023-08-31 06:45,24,6.1,94,25,4,7,7370,0,59.6,21,347,468.1,6,Asia
Iran,Tehran,35.73,51.33,2023-08-31 03:15,23,19.1,47,50,8,1,213.6,32.5,39.1,17.9,10,25.4,1,Asia
Iraq,Baghdad,33.34,44.39,2023-08-31 02:45,31,4,29,0,10,1,340.5,71.5,15.6,5.8,17.7,52.4,2,Asia
Ireland,Dublin,53.33,-6.25,2023-08-31 00:45,13,6.1,82,75,10,1,237,50.8,7.4,2.6,2.2,4.6,1,Europe
Israel,Jerusalem,31.78,35.23,2023-08-31 02:45,25,3.6,83,0,10,1,347.1,20.2,56.9,5.3,19.4,30.2,2,Asia
Italy,Rome,41.9,12.48,2023-08-31 01:45,20,9,73,25,10,1,474,2,21.3,0.5,14.1,19,1,Europe
Jamaica,Norman Gardens,17.97,-76.75,2023-08-30 18:45,32,31,67,25,10,7,534.1,28.6,6.9,6.2,4,11.9,1,America
Japan,Tokyo,35.69,139.69,2023-08-31 08:45,30,13,66,25,10,7,200.3,15.9,22.3,30.5,13.3,24.2,1,Asia
Jordan,Amman,31.95,35.93,2023-08-31 02:45,24,3.6,36,0,6,1,223.6,52.2,8.8,4.8,15.4,26.5,1,Asia
Kazakhstan,Astana,51.18,71.43,2023-08-31 05:45,8,25.9,76,0,10,1,223.6,44,3,6.7,1,3.4,1,Asia
Kenya,Nairobi,-1.28,36.82,2023-08-31 02:45,17,6.8,77,75,10,1,460.6,35.8,4.1,3.9,6.5,14.9,1,Africa
Kiribati,Tarawa,-0.88,169.53,2023-08-31 11:45,29.1,15.5,73,75,9,6,166.9,8.6,0,0.1,1.3,2.9,1,Pacific
Kuwait,Kuwait City,29.37,47.96,2023-08-31 02:45,34.7,19.1,35,0,10,1,267,144.5,3.9,4.5,26.2,79.7,2,Asia
Kyrghyzstan,Bishkek,42.87,74.6,2023-08-31 05:45,15.5,9.4,72,94,10,1,210.3,73,1.4,1.1,4.4,8.2,1,Asia
Indonesia,Laos,-8.18,114.32,2023-08-31 06:45,20.6,4.3,93,46,10,6,487.3,21.8,6.9,1.2,19.8,33.4,2,Asia
Latvia,Riga,56.95,24.1,2023-08-31 02:45,19,6.8,94,100,10,1,220.3,28.6,3.6,0.6,5.1,5.2,1,Europe
Lebanon,Beirut,33.87,35.51,2023-08-31 02:45,27,6.8,79,75,6,1,233.7,83.7,2,3.2,20.6,30.3,2,Asia
Lesotho,Maseru,-29.32,27.48,2023-08-31 01:45,10.6,3.6,33,0,10,1,627.5,29.3,12.5,4.5,55.2,64,3,Africa
Liberia,Monrovia,6.31,-10.8,2023-08-30 23:45,26,3.6,89,75,10,1,320.4,36.5,0.3,0.2,2.2,3.3,1,Africa
Thailand,Nan,18.78,100.78,2023-08-31 06:45,25,4,100,75,10,1,370.5,19.1,0.9,0.1,3,3.1,1,Asia
Liechtenstein,Vaduz,47.13,9.52,2023-08-31 01:45,16,3.6,68,75,10,1,176.9,33.3,3.4,0.3,2.8,3.5,1,Europe
Lithuania,Vilnius,54.68,25.32,2023-08-31 02:45,19,16.9,94,100,10,1,220.3,33.3,2.3,1.4,8.4,8.6,1,Europe
Luxembourg,Luxembourg,49.61,6.13,2023-08-31 01:45,10,13,94,0,10,1,233.7,38.6,4.4,0.7,4.3,4.8,1,Europe
Madagascar,Antananarivo,-18.92,47.52,2023-08-31 02:45,13,20.2,77,75,10,1,290.4,45.1,0.9,1,2.6,5.2,1,Indian
Malawi,Lilongwe,-13.98,33.78,2023-08-31 01:45,13,11.2,72,0,10,1,333.8,43.3,1.8,0.6,7.7,11.5,1,Africa
Malaysia,Kuala Lumpur,3.17,101.7,2023-08-31 07:45,26,3.6,89,25,9,1,3364.6,0,38.4,38.2,88.8,102.6,4,Asia
Maldives,Farukolhufunadhoo,6.15,73.27,2023-08-31 04:45,26,32.4,85,84,10,1,171.9,34.7,0.5,0.3,1.1,2.2,1,Indian
Mali,Bamako,12.65,-8,2023-08-30 23:45,26,4,89,25,10,1,554.1,2.7,2.4,0.9,11.7,21.7,1,Africa
Malta,Valletta,35.9,14.51,2023-08-31 01:45,24,13,83,25,10,1,201.9,80.8,3.8,3.8,5.6,14.2,1,Europe
Marshall Islands,Majuro,7.1,171.38,2023-08-31 11:45,31,9,71,75,24,6,168.6,29.3,0,0.1,0.7,1.4,1,Pacific
Mauritania,Nouakchott,18.09,-15.98,2023-08-30 23:45,26.3,30.6,84,88,10,1,330.5,35.4,0.6,0.5,2,3.8,1,Africa
Mauritius,Port Louis,-20.16,57.5,2023-08-31 03:45,21,15.1,69,25,10,1,208.6,46.5,1.7,1.9,3.2,5.4,1,Indian
Mexico,Mexico City,19.43,-99.13,2023-08-30 17:45,24,37.1,39,75,13,6,267,167.4,5.3,28.9,19.6,20.9,2,America
Micronesia,Palikir,6.92,158.15,2023-08-31 10:45,29,6.1,79,100,24,6,175.2,13.2,0,0,0.5,0.9,1,Pacific
Russia,Chi-Chi-Erh,51.7,94.45,2023-08-31 06:45,19.7,6.5,59,48,10,5,123.5,7.4,2.6,1.6,3.9,7.5,1,Asia
Monaco,Monaco,43.73,7.42,2023-08-31 01:45,20,13,73,0,10,1,250.3,55.1,15.3,2.2,7.5,9,1,Europe
Mongolia,Ulaanbaatar,47.92,106.92,2023-08-31 07:45,10,3.6,82,25,10,6,217,70.1,4.8,64.9,4.7,8.3,1,Asia
Montenegro,Podgorica,42.44,19.26,2023-08-31 01:45,19,11.2,94,75,10,1,220.3,73,3.2,1.7,5.2,6,1,Europe
Morocco,Rabat,34.03,-6.84,2023-08-31 00:45,18,3.6,94,75,5,1,212,107.3,0.5,0.9,9,22.7,1,Africa
Mozambique,Maputo,-25.97,32.59,2023-08-31 01:45,17,6.1,88,0,10,1,212,39,0.7,0.2,3.7,19.2,1,Africa
Myanmar,Pathein,16.78,94.73,2023-08-31 06:15,25.5,5.8,93,60,10,7,313.8,22,1.9,0.2,12.9,14.4,1,Asia
Namibia,Windhoek,-22.57,17.08,2023-08-31 01:45,16,6.8,42,0,10,1,433.9,45.1,4.3,6.6,26.3,36.6,2,Africa
Turkey,Yaren,39.55,27.62,2023-08-31 02:45,23,6.8,61,0,10,1,310.4,45.1,3.9,0.4,35.7,43.6,2,Europe
Nepal,Kathmandu,27.72,85.32,2023-08-31 05:30,22,3.6,94,75,7,4,1388.6,7.9,21.4,6.4,79.2,87.9,4,Asia
Netherlands,Amsterdam,52.37,4.89,2023-08-31 01:45,13,15.1,88,25,10,1,247,49.4,10.7,1.6,3.3,4.7,1,Europe
New Zealand,Wellington,-41.3,174.78,2023-08-31 11:45,14,37.1,72,75,10,4,208.6,59.4,0.1,0.2,0.5,1.1,1,Pacific
Nicaragua,Managua,12.15,-86.27,2023-08-30 17:45,34,11.2,56,25,10,7,474,62.9,5.4,5.3,11.6,15.2,1,America
Niger,Niamey,13.52,2.12,2023-08-31 00:45,24,15.1,83,0,10,1,373.8,23.6,1,0.4,6.9,11.3,1,Africa
Nigeria,Abuja,9.18,7.18,2023-08-31 00:45,24,4,94,25,10,1,647.5,14.5,1.5,0.1,8.4,10.3,1,Africa
North Korea,Pyongyang,39.02,125.75,2023-08-31 08:45,20.1,3.6,87,31,10,6,534.1,4.8,8.1,5.3,36.2,45.8,2,Asia
Macedonia,Skopje,42,21.43,2023-08-31 01:45,19,6.1,68,25,10,1,207,20,5.2,1.5,2.5,4.1,1,Europe
Norway,Oslo,59.92,10.75,2023-08-31 01:45,13,22,94,75,10,1,247,15.4,29.8,15.7,12.3,13.9,1,Europe
Oman,Muscat,23.61,58.59,2023-08-31 03:45,29,3.6,94,25,8,1,175.2,55.8,3,1.5,32.4,106.5,2,Asia
Pakistan,Islamabad,33.7,73.17,2023-08-31 04:45,25.7,10.1,55,11,10,1,867.8,47.2,15.1,5.8,51.5,64.7,3,Asia
Palau,Adkip,7.36,134.51,2023-08-31 08:45,29,9,79,75,21,1,213.6,4.7,0.1,0.1,1.1,2.9,1,Pacific
Bolivia,National,-11.18,-67.08,2023-08-30 19:45,31.1,3.6,40,15,10,1,454,12.3,0.1,0,20,20.1,2,America
Panama,Panama City,8.97,-79.53,2023-08-30 18:45,30,28.1,84,50,10,6,540.7,50.8,7.5,7,11.9,14.1,1,America
Papua New Guinea,Port Moresby,-9.46,147.19,2023-08-31 09:45,27,28.1,62,0,10,6,230.3,53.6,6.2,7.6,2.8,7.6,1,Pacific
Paraguay,Carreria,-21.55,-58.12,2023-08-30 19:45,29.2,4,37,23,10,1,454,35.4,0.3,0.1,10.4,10.5,1,America
Peru,Lima,-12.05,-77.05,2023-08-30 18:45,18.7,17.6,79,51,10,5,293.7,49.4,14.1,5.2,14,31.1,1,America
Philippines,Manila,14.6,120.98,2023-08-31 07:45,25,3.6,100,100,6,6,413.9,47.9,6,1.8,3,6.8,1,Asia
Poland,Warsaw,52.25,21,2023-08-31 01:45,16,11.2,94,75,10,1,207,51.5,2.1,0.9,4.1,4.5,1,Europe
Portugal,Lisbon,38.72,-9.13,2023-08-31 00:45,19,22,78,25,10,1,207,86.6,2,1.2,3.3,11.2,1,Europe
Qatar,Doha,25.29,51.53,2023-08-31 02:45,34,6.8,67,0,10,1,243.7,111.6,13,13.5,40.5,94.5,3,Asia
Romania,Bucharest,44.43,26.1,2023-08-31 02:45,20,6.1,94,50,10,1,243.7,4.5,6.3,0.3,12.8,14.5,1,Europe
Russia,Moscow,55.75,37.62,2023-08-31 02:45,13,6.8,88,0,10,1,350.5,3.3,32.6,8,27.7,32.1,2,Europe
Rwanda,Kigali,-1.95,30.06,2023-08-31 01:45,20,6.8,56,25,10,1,774.4,23.6,9.9,1.9,38.2,57.7,2,Africa
Saint Kitts and Nevis,Basseterre,17.3,-62.72,2023-08-30 19:45,29,19.1,79,25,10,1,191.9,25.8,1.9,1,4.4,7.3,1,America
Saint Lucia,Castries,14,-61,2023-08-30 19:45,28,13,84,50,10,1,195.3,25.8,0.2,0.2,4.4,7.2,1,America
Saint Vincent and the Grenadines,Kingstown,13.13,-61.22,2023-08-30 19:45,28.9,25.6,78,79,10,1,233.7,25.4,0.1,0.1,2,4.9,1,America
Samoa,Apia,-13.83,-171.73,2023-08-31 12:45,29,11.2,75,75,10,7,183.6,55.1,0.1,0.3,3.7,15.2,1,Pacific
San Marino,San Marino,43.93,12.45,2023-08-31 01:45,17,3.6,83,0,10,1,223.6,67.2,3.6,1.4,2.9,3.6,1,Europe
Belgium,'S-Gravenwezel,51.27,4.55,2023-08-31 01:45,11,9,94,0,10,1,277,46.5,21.6,6.9,7,11,1,Europe
Saudi Arabia,Riyadh,24.64,46.77,2023-08-31 02:45,31,6.1,22,0,10,1,223.6,144.5,6.5,36.2,42.2,137.5,3,Asia
Senegal,Dakar,14.67,-17.44,2023-08-30 23:45,27,25.9,89,25,10,1,433.9,31.1,0.7,0.4,1.1,1.7,1,Africa
Serbia,Belgrade,44.8,20.47,2023-08-31 01:45,16,11.2,100,0,10,1,227,35.1,5.4,0.6,5.7,6.8,1,Europe
Seychelles Islands,Victoria,-4.62,55.45,2023-08-31 03:45,26,16.9,79,50,10,1,193.6,37.2,0.2,0.6,10,30.1,1,Indian
Sierra Leone,Freetown,8.49,-13.23,2023-08-30 23:45,27,6.8,84,50,10,1,267,21.8,0.9,0.2,3.4,5.8,1,Africa
Singapore,Singapore,1.29,103.86,2023-08-31 07:45,28,6.8,79,75,10,1,580.8,1.5,37,21.2,10.9,18.4,1,Asia
Slovakia,Bratislava,48.15,17.12,2023-08-31 01:45,15,6.8,88,0,10,1,220.3,45.8,5.3,0.9,3.5,4.5,1,Europe
Slovenia,Ljubljana,46.06,14.51,2023-08-31 01:45,14,6.1,100,75,10,1,213.6,28.6,5.1,0.9,5.9,6.7,1,Europe
Solomon Islands,Honiara,-9.43,159.95,2023-08-31 10:45,28,3.6,84,75,10,6,213.6,34,4.5,2.6,1.5,1.6,1,Pacific
Somalia,Mogadishu,2.07,45.37,2023-08-31 02:45,24.2,20.9,84,48,10,1,176.9,38.3,0.1,0.2,7.1,22.6,1,Africa
South Africa,Pretoria,-25.75,28.19,2023-08-31 01:45,13,9,51,0,10,1,881.2,15.9,24.3,21.9,40.8,62.3,3,Africa
South Korea,Seoul,37.57,127,2023-08-31 08:45,22,4,94,75,7,5,1495.4,0.1,41.1,33.4,62.2,69.1,3,Asia
Sudan,Juba,12.15,24.45,2023-08-31 01:45,20.9,10.1,89,62,10,1,273.7,14.8,0.3,0.1,3.7,6.5,1,Africa
Spain,Madrid,40.4,-3.68,2023-08-31 01:45,21,3.6,40,0,10,1,208.6,60.1,3.3,0.2,0.9,1.3,1,Europe
Sri Lanka,Colombo,6.93,79.85,2023-08-31 05:15,26,15.1,94,50,9,1,183.6,36.8,3.8,2.7,2.4,4.3,1,Asia
Sudan,Khartoum,15.59,32.53,2023-08-31 01:45,28.7,27.4,50,30,10,1,387.2,37.9,3.3,3,18.4,65.7,2,Africa
Suriname,Paramaribo,5.83,-55.17,2023-08-30 20:45,29,15.1,79,25,10,1,247,22.4,0.1,0.1,1.2,4.3,1,America
Sweden,Stockholm,59.33,18.05,2023-08-31 01:45,11,6.8,100,0,10,1,213.6,32.5,7.5,4.9,5.7,6.6,1,Europe
Switzerland,Bern,46.92,7.47,2023-08-31 01:45,13,3.6,88,100,10,1,200.3,8.5,6.9,0.5,6.4,7.4,1,Europe
Syria,Damascus,33.5,36.3,2023-08-31 02:45,23,16.9,61,0,10,1,270.4,46.5,9.3,5.5,15.3,27.7,1,Asia
Tajikistan,Dushanbe,38.56,68.77,2023-08-31 04:45,24,11.2,44,50,10,1,188.6,31.5,2.5,2.5,5.1,8.6,1,Asia
Tanzania,Dodoma,-6.18,35.75,2023-08-31 02:45,18.9,14.8,61,8,10,1,212,32.5,0.3,0.1,2,3.5,1,Africa
Thailand,Bangkok,13.75,100.52,2023-08-31 06:45,27,6.1,94,50,7,1,974.7,0,16.6,22.9,21.9,43.8,2,Asia
Indonesia,Murong Timor,-7.56,112.27,2023-08-31 06:45,20.8,9.4,88,5,10,6,547.4,16.3,9.4,2.9,17.6,30.8,2,Asia
Bulgaria,Lom,43.81,23.24,2023-08-31 02:45,22.8,7.9,42,45,10,1,257,21.8,3.8,0.2,10.1,11.8,1,Europe
Tonga,Nuku`Aloia,-21.13,-175.2,2023-08-31 12:45,26,25.9,65,50,10,5,198.6,67.2,0.2,0.6,2.6,14,1,Pacific
Trinidad and Tobago,Port Of Spain,10.65,-61.52,2023-08-30 19:45,29,6.8,79,25,10,1,210.3,7.2,8.8,0.7,0.6,1.9,1,America
Tunisia,Tunis,36.8,10.18,2023-08-31 00:45,24,3.6,78,25,10,1,223.6,68,4.2,1.9,4.9,10,1,Africa
Turkey,Ankara,39.93,32.86,2023-08-31 02:45,21,3.6,40,0,10,1,427.3,7.9,39.4,18.4,25.2,29.6,2,Europe
Turkmenistan,Ashgabat,37.95,58.38,2023-08-31 04:45,19,4,56,0,10,1,247,42.9,17.7,7.5,11.2,55,1,Asia
Tuvalu,Funafuti,-8.52,179.22,2023-08-31 11:45,33,11.2,80,75,10,6,170.2,24.7,0,0.1,2.3,4.2,1,Pacific
Uganda,Kampala,0.32,32.57,2023-08-31 02:45,20,6.8,94,25,10,1,520.7,4.7,2.6,0.4,30,44.9,2,Africa
Ukraine,Lviv,49.83,24,2023-08-31 02:45,15.8,9.7,95,81,6,1,263.7,21.8,3.8,0.7,7.5,7.9,1,Europe
United Arab Emirates,Abu Dhabi,24.47,54.37,2023-08-31 03:45,33,3.6,63,0,10,1,383.9,70.8,12.3,11.3,55.2,222.7,3,Asia
United Kingdom,London,51.52,-0.11,2023-08-31 00:45,13,3.6,77,100,10,1,253.7,26.8,19,4.1,3,4.5,1,Europe
United States of America,Washington Park,46.6,-120.49,2023-08-30 16:45,26.7,24.1,28,0,16,7,166.9,73.7,0.4,0.2,0.5,0.6,1,America
Uruguay,Montevideo,-34.86,-56.17,2023-08-30 20:45,15,6.1,72,0,10,1,373.8,46.5,9.4,6.2,10,14.9,1,America
Uzbekistan,Tashkent,41.32,69.25,2023-08-31 04:45,19,6.8,83,37,10,1,263.7,20.2,24.3,2,5,5.6,1,Asia
Vanuatu,Port Vila,-17.73,168.32,2023-08-31 10:45,28,9,79,75,10,6,188.6,55.1,0,0.1,1.2,2.2,1,Pacific
Venezuela,Caracas,10.5,-66.92,2023-08-30 19:45,30,4,62,50,10,1,721,7.3,57.6,73.4,13.3,14,1,America
Vietnam,Hanoi,21.03,105.85,2023-08-31 06:45,25,6.1,89,0,10,6,1255,0.6,20.6,5.8,81.5,106.4,4,Asia
Yemen,Sanaa,15.35,44.21,2023-08-31 02:45,17.8,6.1,53,47,9,1,243.7,50.1,21.8,23.4,36.9,121,2,Asia
Zambia,Lusaka,-15.42,28.28,2023-08-31 01:45,15.1,9.4,42,0,10,1,1268.4,44.7,6.2,5.3,11.6,18.8,1,Africa
Zimbabwe,Harare,-17.82,31.04,2023-08-31 01:45,11.2,11.2,64,18,10,1,360.5,29.7,6.7,7.8,14.3,20.8,1,Africa
Afghanistan,Kabul,34.52,69.18,2023-09-01 04:15,19.2,3.6,49,5,10,1,1228.3,45.4,12.7,0.7,20.9,52.4,2,Asia
Albania,Tirana,41.33,19.82,2023-09-01 01:30,17,6.1,88,0,10,1,220.3,54.4,4.5,0.3,4.4,8.9,1,Europe
Algeria,Algiers,36.76,3.05,2023-09-01 00:45,22,6.8,78,25,10,1,227,72.2,9.8,3,3.6,8.7,1,Africa
Andorra,Andorra La Vella,42.5,1.52,2023-09-01 01:45,8.1,3.6,88,17,10,1,168.6,45.4,1.4,0.2,2,2.9,1,Europe
Angola,Luanda,-8.84,13.23,2023-09-01 00:45,21,3.6,94,25,10,1,400.5,42.6,3.5,2.5,7.3,18.2,1,Africa
Antigua and Barbuda,Saint John's,17.12,-61.85,2023-08-31 19:45,29,13,75,25,10,1,205.3,29.3,0.8,0.7,3.5,7.8,1,America
Argentina,Buenos Aires,-34.59,-58.67,2023-08-31 20:30,12,13,62,0,10,1,397.2,34.7,20.7,3.8,1.9,3.3,1,America
Armenia,Yerevan,40.18,44.51,2023-09-01 03:45,24,9,36,0,10,1,203.6,40.4,2.8,0.3,3.2,3.7,1,Asia
Australia,Canberra,-35.28,149.22,2023-09-01 09:45,11,24.1,50,0,10,3,250.3,20,7.6,0.7,2.2,3.8,1,Australia
Austria,Vienna,48.2,16.37,2023-09-01 01:45,16,6.8,77,0,10,1,243.7,39.7,7.2,0.5,3.6,4.8,1,Europe
Azerbaijan,Baku,40.4,49.88,2023-09-01 03:45,23,6.8,73,25,10,1,300.4,41.5,27.4,1.9,6.9,19.8,1,Asia
Bahamas,Nassau,25.08,-77.35,2023-08-31 19:30,31,11.2,79,50,10,8,350.5,41.8,1.1,1,3.3,6.6,1,America
Bahrain,Manama,26.24,50.58,2023-09-01 02:45,34,20.2,60,0,10,1,280.4,154.5,4.9,19.3,27.7,61.3,2,Asia
Bangladesh,Dhaka,23.72,90.41,2023-09-01 05:45,28.2,11.2,82,80,10,1,847.8,35.8,13.4,4.6,88.1,97.7,4,Asia
Barbados,Bridgetown,13.1,-59.62,2023-08-31 19:45,28,20.2,79,25,10,1,213.6,40.1,3,1.3,2.7,12.3,1,America
Belarus,Minsk,53.9,27.57,2023-09-01 02:45,13,6.8,100,25,7,1,203.6,24,3.5,0.7,3,3.3,1,Europe
Belgium,Brussels,50.83,4.33,2023-09-01 01:45,14,6.8,94,75,10,1,247,65.1,5.8,1,2.9,3.3,1,Europe
Belize,Belmopan,17.25,-88.77,2023-08-31 17:45,30,6.1,79,25,10,6,227,13.4,0.1,0.1,2.3,2.4,1,America
Benin,Porto-Novo,6.48,2.62,2023-09-01 00:45,26,9,89,25,10,1,454,32.2,2.5,1.3,8.8,16.2,1,Africa
Bhutan,Thimphu,27.48,89.6,2023-09-01 05:45,12.3,3.6,96,71,10,1,413.9,34,0.3,0.1,14.8,15,1,Asia
Bolivia,Sucre,-19.04,-65.26,2023-08-31 19:45,10.8,3.6,82,88,8,1,337.1,7.2,0.9,0.3,3.1,3.7,1,America
Bosnia and Herzegovina,Sarajevo,43.85,18.38,2023-09-01 01:30,16,6.1,100,75,7,1,203.6,25.8,3.8,1.3,7.9,9.1,1,Europe
Botswana,Gaborone,-24.65,25.91,2023-09-01 01:45,12,9,47,0,10,1,337.1,2.2,14.2,1.7,11.1,15.7,1,Africa
Brazil,Bras,-2.08,-58.17,2023-08-31 19:45,32.6,4,33,24,10,1,363.8,33.6,0.3,0.4,2.1,3.1,1,America
Brunei Darussalam,Bandar Seri Begawan,4.88,114.93,2023-09-01 07:45,28,6.8,94,75,10,6,330.5,39,2.5,1.2,6,6.3,1,Asia
Bulgaria,Sofia,42.68,23.32,2023-09-01 02:45,13,3.6,94,50,10,1,190.3,34.7,2.1,0.1,2.9,4.3,1,Europe
Burkina Faso,Ouagadougou,12.37,-1.52,2023-08-31 23:45,27.3,10.8,67,5,10,1,540.7,5.9,3.3,1.3,10.7,24.1,1,Africa
Burundi,Bujumbura,-3.38,29.36,2023-09-01 01:45,19.7,3.6,57,18,10,1,734.3,19.3,6.9,1.2,35.1,88.5,2,Africa
Madagascar,Ivory,-24.37,46.45,2023-09-01 02:45,18.7,10.4,69,2,10,1,195.3,36.1,0.1,0.1,1.2,1.7,1,Indian
Cape Verde,Praia,14.93,-23.51,2023-08-31 22:45,28,22,89,50,10,1,273.7,18.6,0.3,0.1,2.1,5,1,Atlantic
Cambodia,Phnom Penh,11.55,104.92,2023-09-01 06:45,27,4,94,75,10,6,327.1,17,2.9,1.4,2.5,7.4,1,Asia
Cameroon,Bafoussam,5.47,10.42,2023-09-01 00:45,18.5,5,96,61,10,1,761,1.1,4.8,0.4,28.1,36.6,2,Africa
Canada,Ottawa,45.42,-75.7,2023-08-31 19:45,20,9,53,25,24,6,223.6,37.6,2.4,0.1,0.6,0.8,1,America
Central African Republic,Bangui,4.37,18.58,2023-09-01 00:45,20.9,4,97,70,2,1,397.2,0,0.6,0.3,7.6,11.5,1,Africa
Chad,N'djamena,12.11,15.05,2023-09-01 00:45,28,6.1,84,0,8,1,494,12.9,1,0.5,6.1,8,1,Africa
Chile,Santiago,-33.45,-70.67,2023-08-31 19:45,16,3.6,55,75,10,1,2456.7,2.2,49.4,6.3,141.2,184.5,4,America
China,Beijing,39.93,116.39,2023-09-01 07:45,21,6.8,88,0,10,6,1548.8,0,54.2,73.4,372.8,409.9,6,Asia
Bulgaria,Bogot,43.32,24.7,2023-09-01 02:45,18.4,13.3,63,17,10,1,243.7,60.8,2,7.8,19.7,20,2,Europe
Comoros,Moroni,-11.7,43.24,2023-09-01 02:45,24,6.8,78,25,10,1,220.3,36.8,0.6,0.3,3.7,9,1,Indian
Congo,Brazzaville,-4.26,15.28,2023-09-01 00:45,26.2,10.4,47,17,10,1,540.7,27.2,1.5,0.3,3.3,15.3,1,Africa
Costa Rica,San Juan,9.97,-84.08,2023-08-31 17:45,23,6.8,83,75,10,5,647.5,31.1,17.8,13.8,17.5,18.9,2,America
Croatia,Zagreb,45.8,16,2023-09-01 01:45,14,3.6,100,0,10,1,213.6,14.5,9.7,0.3,6.5,8.3,1,Europe
Cuba,Havana,23.13,-82.36,2023-08-31 19:45,31,6.8,75,50,9,7,460.6,29,13,32.9,10.5,12.9,1,America
Cyprus,Nicosia,35.17,33.37,2023-09-01 02:45,24,16.9,78,25,10,1,260.4,70.8,1,0.9,20.1,29.1,2,Asia
Czech Republic,Prague,50.08,14.47,2023-09-01 01:45,12,15.1,77,0,10,1,257,53.6,6.8,2.1,3,4.1,1,Europe
Democratic Republic of Congo,Kinshasa,-4.3,15.3,2023-09-01 00:45,25.9,10.1,49,16,10,1,540.7,27.2,1.5,0.3,3.3,15.3,1,Africa
Denmark,Copenhagen,55.67,12.58,2023-09-01 01:45,13,6.8,94,75,10,1,263.7,31.8,6.3,0.7,4.1,4.7,1,Europe
Djibouti,Djibouti,11.6,43.15,2023-09-01 02:45,35,6.1,50,25,9,1,270.4,61.5,0.6,0.6,27.7,75.7,2,Africa
Dominica,Roseau,15.3,-61.4,2023-08-31 19:45,29,13,84,75,10,1,220.3,27.2,1.5,0.3,2.3,8.9,1,America
Dominican Republic,Santo Domingo,18.47,-69.9,2023-08-31 19:45,29,11.2,89,50,10,1,767.7,2.2,26.1,9.1,11.4,17.9,1,America
Ecuador,Quito,-0.22,-78.5,2023-08-31 18:45,14.3,3.6,79,84,9,3,2216.3,1.3,75.4,30.3,16.3,19.1,2,America
Egypt,Cairo,30.05,31.25,2023-09-01 02:45,26,11.2,84,50,10,1,208.6,58.7,9.3,5.6,9,25.8,1,Africa
El Salvador,San Salvador,13.71,-89.2,2023-08-31 17:45,32,9,71,25,10,6,433.9,73,4.2,12.5,23.2,26.3,2,America
Equatorial Guinea,Malabo,3.75,8.78,2023-09-01 00:45,25,8.3,87,87,9,1,390.5,35.4,0.1,0.1,4.4,4.8,1,Africa
Eritrea,Asmara,15.33,38.93,2023-09-01 02:45,16.9,4.7,76,80,10,1,250.3,23.6,1.1,0.2,12,36.8,1,Africa
Estonia,Tallinn,59.43,24.73,2023-09-01 02:45,14,6.8,100,60,0.2,1,207,75.1,1.3,0.7,1.7,1.9,1,Europe
Swaziland,Mbabane,-26.32,31.13,2023-09-01 01:45,13.8,9.7,39,0,10,1,343.8,53.6,3.5,6,25.6,29.7,2,Africa
Ethiopia,Addis Ababa,9.03,38.7,2023-09-01 02:45,11.8,3.6,83,71,10,1,1895.9,13.8,12.9,3.1,80.3,245.7,4,Africa
Fiji Islands,Suva,-18.13,178.42,2023-09-01 11:45,28,20.2,79,75,10,5,181.9,54.4,0.8,1.2,4,16.2,1,Pacific
Finland,Helsinki,60.18,24.93,2023-09-01 02:45,16,6.8,94,75,10,1,212,26.1,5.5,1.2,2.8,4.6,1,Europe
France,Paris,48.87,2.33,2023-09-01 01:45,18,9,94,75,10,1,227,50.1,5.4,1.2,2.4,3.4,1,Europe
Gabon,Libreville,0.38,9.45,2023-09-01 00:45,24.6,9.7,86,43,10,1,494,35.8,1.3,1.4,6.1,11.3,1,Africa
Gambia,Banjul,13.45,-16.58,2023-08-31 23:45,26,3.6,94,50,10,1,343.8,23.3,0.3,0.2,1,2.6,1,Africa
Georgia,Tbilisi,41.73,44.79,2023-09-01 03:45,23,3.6,69,50,10,1,273.7,22.9,4.1,0.3,8.6,11.1,1,Asia
Germany,Berlin,52.52,13.4,2023-09-01 01:45,12,16.9,88,0,10,1,270.4,49.4,10.5,3.6,3.6,4.2,1,Europe
Ghana,Accra,5.55,-0.22,2023-08-31 23:45,26,16.9,89,75,10,1,460.6,29,5.5,4.4,15,25.1,1,Africa
Greece,Athens,37.98,23.72,2023-09-01 02:45,26,9,45,0,10,1,230.3,79.4,7.1,7,3.7,6.4,1,Europe
Grenada,Saint George's,12.05,-61.75,2023-08-31 19:45,29,20.2,79,25,10,1,223.6,22,1.5,0.9,2.4,6.2,1,America
Guatemala,Guatemala City,14.62,-90.53,2023-08-31 17:45,21,3.6,88,25,10,5,377.2,55.1,3,33.9,14.8,18.6,1,America
Guinea,Conakry,9.51,-13.71,2023-08-31 23:45,28,19.1,89,75,10,1,290.4,30.4,0.2,0.1,2,5.1,1,Africa
Guinea-Bissau,Bissau,11.85,-15.58,2023-08-31 23:45,26,3.6,94,25,10,1,237,17.7,0.6,0.1,2.1,3.3,1,Africa
Guyana,Georgetown,6.8,-58.17,2023-08-31 19:45,25,3.6,94,25,10,1,307.1,13.1,5,4.4,1.5,4.2,1,America
Haiti,Port-Au-Prince,18.54,-72.34,2023-08-31 19:45,33,29.9,56,75,10,6,554.1,55.1,12.7,8.7,9.7,17.5,1,America
Vatican City,Vatican City,41.9,12.45,2023-09-01 01:45,20,6.8,64,0,10,1,560.8,3.8,25,0.4,15.9,21.1,2,Europe
Honduras,Tegucigalpa,14.1,-87.22,2023-08-31 17:45,27,6.8,58,25,10,7,540.7,22.5,10,1.7,2.3,7.4,1,America
Hungary,Budapest,47.5,19.08,2023-09-01 01:45,13,9,94,0,10,1,223.6,37.6,6.6,0.8,3.5,4.7,1,Europe
Iceland,Hella,63.83,-20.4,2023-08-31 23:45,10.8,19.1,87,73,10,1,227,67.2,0.3,0.5,0.9,2.1,1,Atlantic
India,New Delhi,28.6,77.2,2023-09-01 05:15,29,6.8,79,0,3.2,1,350.5,52.2,9.2,6.4,23.4,53.4,2,Asia
Indonesia,Jakarta,-6.21,106.85,2023-09-01 06:45,24,6.1,94,25,5,7,14099.1,0,126.1,36.7,700.8,869.6,6,Asia
Iran,Tehran,35.73,51.33,2023-09-01 03:15,25,6.8,36,0,10,1,467.3,0,97.3,60.6,68.6,125.3,4,Asia
Iraq,Baghdad,33.34,44.39,2023-09-01 02:45,31,6.1,27,0,10,1,280.4,83,5.7,3.7,16.4,47.6,2,Asia
Ireland,Dublin,53.33,-6.25,2023-09-01 00:45,15,3.6,94,75,10,1,212,12.5,8.4,2.4,2.5,2.9,1,Europe
Israel,Jerusalem,31.78,35.23,2023-09-01 02:45,26,6.8,89,75,10,1,400.5,7,61.7,7,32.5,71.4,2,Asia
Italy,Rome,41.9,12.48,2023-09-01 01:45,20,6.8,64,0,10,1,560.8,3.8,25,0.4,15.9,21.1,2,Europe
Jamaica,Norman Gardens,17.97,-76.75,2023-08-31 18:45,31,38.9,75,25,10,7,554.1,23.6,9.4,7.1,4.9,8.2,1,America
Japan,Tokyo,35.69,139.69,2023-09-01 08:45,29,9,66,25,10,7,293.7,13.1,38.7,31,15.5,23,2,Asia
Jordan,Amman,31.95,35.93,2023-09-01 02:45,26,4,32,0,7,1,250.3,55.8,10.7,4.7,23.9,61,2,Asia
Kazakhstan,Astana,51.18,71.43,2023-09-01 05:45,10,22,94,75,10,1,227,50.8,3,6.5,0.7,0.7,1,Asia
Kenya,Nairobi,-1.28,36.82,2023-09-01 02:45,17,9,83,75,10,1,447.3,31.5,4.9,5.7,7.3,19.1,1,Africa
Kiribati,Tarawa,-0.88,169.53,2023-09-01 11:45,28.9,20.5,76,69,10,6,163.6,22.5,0,0.1,2.1,4,1,Pacific
Kuwait,Kuwait City,29.37,47.96,2023-09-01 02:45,34.6,18,32,0,10,1,227,105.9,1.1,1.7,21.8,81,2,Asia
Kyrghyzstan,Bishkek,42.87,74.6,2023-09-01 05:45,12.6,4.3,72,16,10,1,283.7,29,14.2,2.6,6.4,8.7,1,Asia
Indonesia,Laos,-8.18,114.32,2023-09-01 06:45,17.7,4.3,88,15,10,5,487.3,36.1,7.8,2.1,16.1,28.3,2,Asia
Latvia,Riga,56.95,24.1,2023-09-01 02:45,16,11.2,94,100,10,1,230.3,50.1,6.9,2.2,5.6,6.1,1,Europe
Lebanon,Beirut,33.87,35.51,2023-09-01 02:45,28,6.1,79,75,8,1,205.3,91.6,1.5,1.9,7.7,18.6,1,Asia
Lesotho,Maseru,-29.32,27.48,2023-09-01 01:45,12.3,8.3,29,2,10,1,287.1,40.4,3.9,1.2,9.3,12.1,1,Africa
Liberia,Monrovia,6.31,-10.8,2023-08-31 23:45,25,3.6,94,75,7,1,403.9,45.8,0.3,0.2,2,2.9,1,Africa
Thailand,Nan,18.78,100.78,2023-09-01 06:45,24,3.6,100,75,6,1,387.2,1.7,3.4,0.7,10.6,11,1,Asia
Liechtenstein,Vaduz,47.13,9.52,2023-09-01 01:45,16,3.6,94,75,10,1,188.6,11.8,6,0.4,2.1,3.2,1,Europe
Lithuania,Vilnius,54.68,25.32,2023-09-01 02:45,13,13,100,0,10,1,201.9,30.4,3.6,0.6,3.3,3.7,1,Europe
Luxembourg,Luxembourg,49.61,6.13,2023-09-01 01:45,13,9,100,75,3,1,227,62.9,2.9,0.5,3.2,4.8,1,Europe
Madagascar,Antananarivo,-18.92,47.52,2023-09-01 02:45,12,13,88,50,10,1,327.1,41.8,1.2,1.4,3.3,7.9,1,Indian
Malawi,Lilongwe,-13.98,33.78,2023-09-01 01:45,18.1,4.7,54,5,10,1,507.4,19.5,4.5,0.5,16.2,24,2,Africa
Malaysia,Kuala Lumpur,3.17,101.7,2023-09-01 07:45,25,3.6,89,25,10,1,4859.9,0,19.4,41,115.5,138.5,4,Asia
Maldives,Farukolhufunadhoo,6.15,73.27,2023-09-01 04:45,28,30.2,79,88,10,1,186.9,39.3,0.5,0.3,1.3,2.5,1,Indian
Mali,Bamako,12.65,-8,2023-08-31 23:45,25,4,100,25,10,1,587.5,3.9,2.6,1.2,11.6,18.1,1,Africa
Malta,Valletta,35.9,14.51,2023-09-01 01:45,23,9,83,0,10,1,207,91.6,0.7,0.6,4.9,9,1,Europe
Marshall Islands,Majuro,7.1,171.38,2023-09-01 11:45,27,11.2,89,100,16,6,173.6,16.8,0,0,0.5,1,1,Pacific
Mauritania,Nouakchott,18.09,-15.98,2023-08-31 23:45,28,21.2,82,24,10,1,413.9,47.2,1.4,1,4.3,6.3,1,Africa
Mauritius,Port Louis,-20.16,57.5,2023-09-01 03:45,22,9,65,50,10,1,213.6,56.5,1.3,1.7,1.6,5.2,1,Indian
Mexico,Mexico City,19.43,-99.13,2023-08-31 17:45,17,15.1,83,100,1.6,5,423.9,117.3,12.3,19.6,13.8,15.3,1,America
Micronesia,Palikir,6.92,158.15,2023-09-01 10:45,30,9,79,50,24,7,178.6,8.2,0,0,0.5,0.9,1,Pacific
Russia,Chi-Chi-Erh,51.7,94.45,2023-09-01 06:45,14.8,4,79,9,10,4,126.8,9.5,2.3,1.4,2.5,3.5,1,Asia
Monaco,Monaco,43.73,7.42,2023-09-01 01:45,20,13,68,25,10,1,201.9,46.5,5,0.6,8.4,10.1,1,Europe
Mongolia,Ulaanbaatar,47.92,106.92,2023-09-01 07:45,10,3.6,82,50,10,6,188.6,79.4,1.8,23.6,7.7,33.7,1,Asia
Montenegro,Podgorica,42.44,19.26,2023-09-01 01:45,19,4,88,0,10,1,198.6,33.3,4.5,1.8,5.5,6.7,1,Europe
Morocco,Rabat,34.03,-6.84,2023-09-01 00:45,19,6.1,94,0,5,1,217,111.6,0.5,0.8,9,25.2,1,Africa
Mozambique,Maputo,-25.97,32.59,2023-09-01 01:45,19.4,11.2,77,0,10,1,237,26.1,0.9,0.3,4.1,13.1,1,Africa
Myanmar,Pathein,16.78,94.73,2023-09-01 06:15,25.4,6.1,93,71,10,6,253.7,39.7,0.9,0.2,19.9,21,2,Asia
Namibia,Windhoek,-22.57,17.08,2023-09-01 01:45,15,6.8,48,0,10,1,343.8,42.2,2,2.2,29.9,68.9,2,Africa
Turkey,Yaren,39.55,27.62,2023-09-01 02:45,23,3.6,57,0,10,1,247,37.9,7,0.6,8.1,14.2,1,Europe
Nepal,Kathmandu,27.72,85.32,2023-09-01 05:30,22,3.6,88,50,7,6,801.1,31.5,10.5,7.8,44.1,48.4,3,Asia
Netherlands,Amsterdam,52.37,4.89,2023-09-01 01:45,14,6.1,88,0,10,1,267,19.9,22.6,2.3,5.5,7.1,1,Europe
New Zealand,Wellington,-41.3,174.78,2023-09-01 11:45,14,37.1,63,0,10,4,217,62.2,0.1,0.1,0.5,1.5,1,Pacific
Nicaragua,Managua,12.15,-86.27,2023-08-31 17:45,34,11.2,60,50,10,7,494,55.8,5.1,7,5.3,7.4,1,America
Niger,Niamey,13.52,2.12,2023-09-01 00:45,28,6.1,74,0,10,1,403.9,11.1,1.3,0.4,4.2,7.2,1,Africa
Nigeria,Abuja,9.18,7.18,2023-09-01 00:45,26,3.6,89,0,10,1,554.1,5.7,1.4,0.1,11.4,18.4,1,Africa
North Korea,Pyongyang,39.02,125.75,2023-09-01 08:45,19.9,4.7,81,15,10,5,487.3,46.5,10.3,8.1,57.5,64.3,3,Asia
Macedonia,Skopje,42,21.43,2023-09-01 01:45,14,3.6,82,0,10,1,220.3,29.3,5.9,2.1,4.9,7.4,1,Europe
Norway,Oslo,59.92,10.75,2023-09-01 01:45,12,29.9,77,75,10,1,198.6,23.6,9.7,4.9,2.8,3.5,1,Europe
Oman,Muscat,23.61,58.59,2023-09-01 03:45,30,6.8,89,50,10,1,220.3,15,25.4,10.1,35.4,131.3,2,Asia
Pakistan,Islamabad,33.7,73.17,2023-09-01 04:45,26.3,4.3,60,15,10,1,814.4,52.2,13.2,3,75.2,118.2,4,Asia
Palau,Adkip,7.36,134.51,2023-09-01 08:45,29,13,79,75,23,1,198.6,28.6,0.1,0.1,2.1,3.6,1,Pacific
Bolivia,National,-11.18,-67.08,2023-08-31 19:45,32.7,5.8,35,15,10,1,397.2,5.2,0.1,0,5.4,5.4,1,America
Panama,Panama City,8.97,-79.53,2023-08-31 18:45,28,11.2,84,50,10,6,1442,1.7,32.2,26.5,12.9,14.7,1,America
Papua New Guinea,Port Moresby,-9.46,147.19,2023-09-01 09:45,25,16.9,74,50,10,7,247,57.9,7.5,10.6,3.1,5.4,1,Pacific
Paraguay,Carreria,-21.55,-58.12,2023-08-31 19:45,31.4,9.7,39,10,10,1,480.7,23.3,0.5,0.1,5.9,5.9,1,America
Peru,Lima,-12.05,-77.05,2023-08-31 18:45,18.7,14.8,80,78,10,4,347.1,39.3,18.7,6.3,11.1,27.5,1,America
Philippines,Manila,14.6,120.98,2023-09-01 07:45,27,20.2,94,100,5,6,267,26.5,6,1.7,2.8,6.3,1,Asia
Poland,Warsaw,52.25,21,2023-09-01 01:45,12,6.8,94,0,10,1,253.7,50.8,3.8,2.1,5.3,5.9,1,Europe
Portugal,Lisbon,38.72,-9.13,2023-09-01 00:45,19,19.1,83,25,10,1,198.6,72.2,2.4,1.1,3.1,7.6,1,Europe
Qatar,Doha,25.29,51.53,2023-09-01 02:45,36,15.1,37,0,10,1,277,167.4,5,10.9,27.6,60.9,2,Asia
Romania,Bucharest,44.43,26.1,2023-09-01 02:45,19,3.6,78,0,10,1,237,27.5,4.8,0.6,9.1,10.4,1,Europe
Russia,Moscow,55.75,37.62,2023-09-01 02:45,16,15.1,88,0,10,1,270.4,25.4,27.1,15.7,9.7,11.9,1,Europe
Rwanda,Kigali,-1.95,30.06,2023-09-01 01:45,22,6.1,57,50,10,1,400.5,21.8,3.5,0.5,12.1,20.9,1,Africa
Saint Kitts and Nevis,Basseterre,17.3,-62.72,2023-08-31 19:45,29,20.2,79,25,10,1,205.3,28.3,0.5,0.2,3.8,10.6,1,America
Saint Lucia,Castries,14,-61,2023-08-31 19:45,28,19.1,79,0,10,1,198.6,22.5,0.1,0.1,3.5,6.3,1,America
Saint Vincent and the Grenadines,Kingstown,13.13,-61.22,2023-08-31 19:45,29.1,23.4,74,54,10,1,200.3,62.9,1.4,2.1,5.5,16,1,America
Samoa,Apia,-13.83,-171.73,2023-09-01 12:45,30,9,75,75,10,7,191.9,63.7,0.1,0.3,3.7,16.7,1,Pacific
San Marino,San Marino,43.93,12.45,2023-09-01 01:45,19,4,78,0,10,1,247,78,2.7,0.5,4.5,5.8,1,Europe
Belgium,'S-Gravenwezel,51.27,4.55,2023-09-01 01:45,14,9,94,0,10,1,270.4,51.5,15.1,3.2,3.1,3.7,1,Europe
Saudi Arabia,Riyadh,24.64,46.77,2023-09-01 02:45,30,4,19,0,10,1,310.4,79.4,29.8,48.2,34.6,98.3,2,Asia
Senegal,Dakar,14.67,-17.44,2023-08-31 23:45,28,22,84,25,10,1,333.8,22.4,0.4,0.4,1.3,3.2,1,Africa
Serbia,Belgrade,44.8,20.47,2023-09-01 01:45,19,13,83,75,10,1,240.3,3.7,17.3,0.3,10.8,14.3,1,Europe
Seychelles Islands,Victoria,-4.62,55.45,2023-09-01 03:45,26.2,27.4,76,68,10,1,190.3,49.4,0.2,0.5,4.7,20.6,1,Indian
Sierra Leone,Freetown,8.49,-13.23,2023-08-31 23:45,25.5,11.5,86,89,9,1,230.3,31.8,0.4,0.1,2.1,2.8,1,Africa
Singapore,Singapore,1.29,103.86,2023-09-01 07:45,28,6.8,79,75,10,1,687.6,0.6,39.4,22.2,10.2,18.4,1,Asia
Slovakia,Bratislava,48.15,17.12,2023-09-01 01:45,14,3.6,82,0,10,1,287.1,45.8,13.2,3.3,3.9,5.2,1,Europe
Slovenia,Ljubljana,46.06,14.51,2023-09-01 01:45,14,4,100,75,10,1,191.9,4.7,5.5,0.3,9.6,12.3,1,Europe
Solomon Islands,Honiara,-9.43,159.95,2023-09-01 10:45,27,4,80,86,9,6,198.6,44.7,1.9,1.6,1.3,1.6,1,Pacific
Somalia,Mogadishu,2.07,45.37,2023-09-01 02:45,24.6,27.7,85,72,10,1,190.3,32.2,0.1,0.3,9.6,16.4,1,Africa
South Africa,Pretoria,-25.75,28.19,2023-09-01 01:45,12,3.6,44,0,10,1,440.6,27.5,9.8,10.3,18.3,25.9,2,Africa
South Korea,Seoul,37.57,127,2023-09-01 08:45,22,3.6,88,25,10,6,1201.6,0.7,28.1,19.8,45.7,53.9,3,Asia
Sudan,Juba,12.15,24.45,2023-09-01 01:45,23.5,6.1,76,84,10,1,263.7,14.3,0.7,0.2,2.3,4.2,1,Africa
Spain,Madrid,40.4,-3.68,2023-09-01 01:45,22,3.6,33,0,10,1,377.2,7.7,37.7,0.8,5.7,8.8,1,Europe
Sri Lanka,Colombo,6.93,79.85,2023-09-01 05:15,24,9,94,25,10,1,190.3,40.8,4.1,2.8,2.2,3.8,1,Asia
Sudan,Khartoum,15.59,32.53,2023-09-01 01:45,30.5,18,49,22,10,1,357.2,29,1.8,1.5,5.5,12.6,1,Africa
Suriname,Paramaribo,5.83,-55.17,2023-08-31 20:45,24,6.8,83,50,6,1,303.8,20.4,0.1,0.1,1.8,6.3,1,America
Sweden,Stockholm,59.33,18.05,2023-09-01 01:45,12,3.6,100,75,10,1,217,12.3,13.9,5.7,6.1,7.6,1,Europe
Switzerland,Bern,46.92,7.47,2023-09-01 01:45,15,11.2,88,75,10,1,212,11.8,7.1,0.5,3.4,4.3,1,Europe
Syria,Damascus,33.5,36.3,2023-09-01 02:45,23,6.8,38,0,10,1,307.1,48.6,11,6.4,32.6,74.8,2,Asia
Tajikistan,Dushanbe,38.56,68.77,2023-09-01 04:45,19,3.6,64,0,7,1,200.3,46.5,1.5,0.9,10.2,24.4,1,Asia
Tanzania,Dodoma,-6.18,35.75,2023-09-01 02:45,18.5,16.6,73,7,10,1,196.9,32.5,0.2,0.1,2.8,4.9,1,Africa
Thailand,Bangkok,13.75,100.52,2023-09-01 06:45,27,9,89,25,10,1,1442,0,18.7,23.4,39.7,77.9,2,Asia
Indonesia,Murong Timor,-7.56,112.27,2023-09-01 06:45,20.1,11.9,84,16,10,6,420.6,16.5,6.5,2.3,12.7,25,1,Asia
Bulgaria,Lom,43.81,23.24,2023-09-01 02:45,19.4,12.6,59,31,10,1,227,60.1,1.9,5.9,12,12.6,1,Europe
Tonga,Nuku`Aloia,-21.13,-175.2,2023-09-01 12:45,25,22,79,75,10,5,201.9,65.1,0.2,0.6,2.7,10.9,1,Pacific
Trinidad and Tobago,Port Of Spain,10.65,-61.52,2023-08-31 19:45,27,6.1,89,25,10,1,263.7,12.9,11.8,1,1.7,2.7,1,America
Tunisia,Tunis,36.8,10.18,2023-09-01 00:45,21,3.6,73,25,10,1,263.7,36.5,15.4,3,4.9,9.4,1,Africa
Turkey,Ankara,39.93,32.86,2023-09-01 02:45,24,15.1,54,0,10,1,283.7,34,15.9,4.4,20.9,25.9,2,Europe
Turkmenistan,Ashgabat,37.95,58.38,2023-09-01 04:45,21,11.2,49,0,10,1,253.7,51.5,19.9,16.7,17.8,86,2,Asia
Tuvalu,Funafuti,-8.52,179.22,2023-09-01 11:45,33,15.1,80,50,10,1,176.9,15.7,0,0.1,1,2.7,1,Pacific
Uganda,Kampala,0.32,32.57,2023-09-01 02:45,21,15.1,88,50,10,1,761,7.5,3,0.5,61.6,88,3,Africa
Ukraine,Lviv,49.83,24,2023-09-01 02:45,12.5,10.1,86,50,10,1,253.7,61.5,2.7,2.6,10,10.5,1,Europe
United Arab Emirates,Abu Dhabi,24.47,54.37,2023-09-01 03:45,33,6.1,80,25,10,1,267,131.6,0.2,2.9,39.2,70.6,2,Asia
United Kingdom,London,51.52,-0.11,2023-09-01 00:45,15,6.8,94,100,10,1,213.6,5.2,19.7,4.7,2.7,3.1,1,Europe
United States of America,Washington Park,46.6,-120.49,2023-08-31 16:45,18.3,15.1,65,0,16,4,186.9,73,1.2,0.1,0.5,0.5,1,America
Uruguay,Montevideo,-34.86,-56.17,2023-08-31 20:45,10,13,66,0,10,1,634.2,25,20.2,9.8,11.6,17.5,1,America
Uzbekistan,Tashkent,41.32,69.25,2023-09-01 04:45,16,6.8,63,0,10,1,220.3,39,4.5,0.9,5.9,22.4,1,Asia
Vanuatu,Port Vila,-17.73,168.32,2023-09-01 10:45,27,13,79,25,10,5,175.2,41.8,0,0.1,0.9,2.4,1,Pacific
Venezuela,Caracas,10.5,-66.92,2023-08-31 19:45,27,4,74,75,10,1,403.9,39.3,18.7,28.1,7.7,8.7,1,America
Vietnam,Hanoi,21.03,105.85,2023-09-01 06:45,26,6.8,84,0,7,6,1508.7,0,23,7.8,88.1,119.4,4,Asia
Yemen,Sanaa,15.35,44.21,2023-09-01 02:45,17.1,3.6,54,44,9,1,233.7,51.5,18.3,18.4,26.7,71,2,Asia
Zambia,Lusaka,-15.42,28.28,2023-09-01 01:45,17.2,9,35,0,10,1,1281.7,42.6,5.5,6.5,12.6,19.9,1,Africa
Zimbabwe,Harare,-17.82,31.04,2023-09-01 01:45,14.1,5,35,2,10,1,821.1,17.9,14.2,11.3,62.1,78.2,3,Africa
Afghanistan,Kabul,34.52,69.18,2023-09-02 04:00,18.5,3.6,40,87,10,1,454,52.9,4.7,0.4,10.8,24.3,1,Asia
Albania,Tirana,41.33,19.82,2023-09-02 01:30,18,3.6,94,0,10,1,250.3,42.6,6.9,0.3,8.1,11.5,1,Europe
Algeria,Algiers,36.76,3.05,2023-09-02 00:30,24,3.6,83,0,10,1,293.7,38.6,35.3,4.8,8.8,24.3,1,Africa
Andorra,Andorra La Vella,42.5,1.52,2023-09-02 01:30,9,5.4,90,79,9,1,170.2,36.1,1.5,0.6,1.6,2.2,1,Europe
Angola,Luanda,-8.84,13.23,2023-09-02 00:30,21,3.6,94,75,8,1,514,62.2,3.9,2.5,9.1,20.7,1,Africa
Antigua and Barbuda,Saint John's,17.12,-61.85,2023-09-01 19:30,29,11.2,75,50,10,1,188.6,43.6,1.1,1,1.8,7.8,1,America
Argentina,Buenos Aires,-34.59,-58.67,2023-09-01 20:30,17,3.6,72,0,10,1,1508.7,0,81.6,26.2,21.8,25.7,2,America
Armenia,Yerevan,40.18,44.51,2023-09-02 03:30,25,6.1,36,0,10,1,207,42.6,3.6,0.3,4.2,5.1,1,Asia
Australia,Canberra,-35.28,149.22,2023-09-02 09:30,7,9,66,0,10,3,240.3,29.3,5.2,0.4,1.6,3.2,1,Australia
Austria,Vienna,48.2,16.37,2023-09-02 01:30,18,6.8,77,0,10,1,527.4,3.8,37,1.8,10.3,14.3,1,Europe
Azerbaijan,Baku,40.4,49.88,2023-09-02 03:30,24,6.8,74,0,10,1,263.7,45.8,15.3,1.2,5.6,12.1,1,Asia
Bahamas,Nassau,25.08,-77.35,2023-09-01 19:30,30,13,79,75,10,7,260.4,86.6,1.9,1.4,8,11,1,America
Bahrain,Manama,26.24,50.58,2023-09-02 02:30,34,9,47,0,10,1,407.2,121.6,24.7,56.7,46,76.7,3,Asia
Bangladesh,Dhaka,23.72,90.41,2023-09-02 05:30,28.6,7.2,80,29,10,1,627.5,29.3,10,2.8,86,92.6,4,Asia
Barbados,Bridgetown,13.1,-59.62,2023-09-01 19:30,27,16.9,94,25,10,1,300.4,14,4.8,1.7,2.3,5,1,America
Belarus,Minsk,53.9,27.57,2023-09-02 02:30,10,3.6,100,0,10,1,250.3,66.5,2.9,1.4,4.1,4.5,1,Europe
Belgium,Brussels,50.83,4.33,2023-09-02 01:30,16,9,100,0,10,1,253.7,3.2,14.6,0.8,4.9,6.4,1,Europe
Belize,Belmopan,17.25,-88.77,2023-09-01 17:30,31,13,79,75,10,8,297.1,32.5,0.3,0.5,2.1,2.5,1,America
Benin,Porto-Novo,6.48,2.62,2023-09-02 00:30,26,24.1,89,25,10,1,527.4,29.7,1.9,1.2,9.5,16.8,1,Africa
Bhutan,Thimphu,27.48,89.6,2023-09-02 05:30,12.4,3.6,94,44,2,1,423.9,17.7,2.6,0.5,7.2,9.1,1,Asia
Bolivia,Sucre,-19.04,-65.26,2023-09-01 19:30,17.8,18.7,47,4,10,1,173.6,57.9,2.5,0.6,1.9,4.4,1,America
Bosnia and Herzegovina,Sarajevo,43.85,18.38,2023-09-02 01:30,13,3.6,100,0,10,1,208.6,29.3,9.3,4.7,26.6,29.6,2,Europe
Botswana,Gaborone,-24.65,25.91,2023-09-02 01:30,18.1,4,26,0,10,1,540.7,1.8,21.3,2.3,18.4,26.4,2,Africa
Brazil,Bras,-2.08,-58.17,2023-09-01 19:30,31.5,3.6,39,18,10,1,390.5,38.6,0.2,0.3,2.5,3.9,1,America
Brunei Darussalam,Bandar Seri Begawan,4.88,114.93,2023-09-02 07:30,25,6.8,100,75,10,7,253.7,10,1.8,0.8,1.9,2,1,Asia
Bulgaria,Sofia,42.68,23.32,2023-09-02 02:30,19,6.1,68,75,10,1,213.6,19.1,7,0.9,9.4,13.9,1,Europe
Burkina Faso,Ouagadougou,12.37,-1.52,2023-09-01 23:30,27,6.8,94,0,10,1,781.1,7.3,5.3,2.2,22.8,43.6,2,Africa
Burundi,Bujumbura,-3.38,29.36,2023-09-02 01:30,22.1,3.6,56,11,10,1,921.3,28.3,7.6,1.3,53.3,113,3,Africa
Madagascar,Ivory,-24.37,46.45,2023-09-02 02:30,19.8,6.8,68,2,10,1,185.3,17.2,0.3,0,1.2,2.1,1,Indian
Cape Verde,Praia,14.93,-23.51,2023-09-01 22:30,28,15.1,84,75,10,1,410.6,14.1,0.8,0.2,3.3,8.4,1,Atlantic
Cambodia,Phnom Penh,11.55,104.92,2023-09-02 06:30,28,15.1,84,50,10,6,263.7,19.9,2,0.9,1.7,4.7,1,Asia
Cameroon,Bafoussam,5.47,10.42,2023-09-02 00:30,18.5,4,96,59,7,1,620.8,4.4,3.1,0.3,11,15.4,1,Africa
Canada,Ottawa,45.42,-75.7,2023-09-01 19:30,21,6.8,64,0,24,7,263.7,44.4,5.6,0.9,1.9,2.3,1,America
Central African Republic,Bangui,4.37,18.58,2023-09-02 00:30,24,3.6,89,25,7,1,347.1,0,0.4,0.2,5.1,7.5,1,Africa
Chad,N'djamena,12.11,15.05,2023-09-02 00:30,24.8,12.6,68,22,10,1,754.4,12.3,2,1,14.7,20.1,1,Africa
Chile,Santiago,-33.45,-70.67,2023-09-01 19:30,13,9,62,100,10,1,2937.3,1.5,71.3,12.9,146.6,192.3,4,America
China,Beijing,39.93,116.39,2023-09-02 07:30,21,3.6,94,0,10,6,2697,0,37.7,49.1,342.2,397.8,6,Asia
Bulgaria,Bogot,43.32,24.7,2023-09-02 02:30,18.3,5,50,6,10,1,253.7,24.3,5.3,0.3,9.6,11.2,1,Europe
Comoros,Moroni,-11.7,43.24,2023-09-02 02:30,20.7,4.3,75,1,10,1,237,34,0.9,0.4,3.7,6.5,1,Indian
Congo,Brazzaville,-4.26,15.28,2023-09-02 00:30,26,15.1,65,0,8,1,821.1,50.1,2.6,0.4,19.7,30.4,2,Africa
Costa Rica,San Juan,9.97,-84.08,2023-09-01 17:30,21,3.6,88,100,10,5,654.2,30.4,23,14.1,16.5,17.9,2,America
Croatia,Zagreb,45.8,16,2023-09-02 01:30,17,3.6,88,0,10,1,307.1,0,10.4,0,13.3,18.9,1,Europe
Cuba,Havana,23.13,-82.36,2023-09-01 19:30,31,15.1,71,25,9,7,360.5,35.1,4.2,10.1,3.6,6.7,1,America
Cyprus,Nicosia,35.17,33.37,2023-09-02 02:30,24,19.1,78,0,10,1,243.7,64.4,4,5.1,13.5,22.6,1,Asia
Czech Republic,Prague,50.08,14.47,2023-09-02 01:30,17,13,94,0,10,1,353.8,0.5,23.3,2.4,11.6,16,1,Europe
Democratic Republic of Congo,Kinshasa,-4.3,15.3,2023-09-02 00:30,26,15.1,65,0,8,1,821.1,50.1,2.6,0.4,19.7,30.4,2,Africa
Denmark,Copenhagen,55.67,12.58,2023-09-02 01:30,15,11.2,88,0,10,1,243.7,50.1,5.7,0.4,8.6,9.5,1,Europe
Djibouti,Djibouti,11.6,43.15,2023-09-02 02:30,32.4,5.8,57,8,10,1,283.7,36.1,1.3,0.4,23.7,72,2,Africa
Dominica,Roseau,15.3,-61.4,2023-09-01 19:30,27,4,89,25,10,1,237,26.5,2.1,0.4,1.8,4.8,1,America
Dominican Republic,Santo Domingo,18.47,-69.9,2023-09-01 19:30,28,6.8,84,50,10,1,554.1,37.6,25.4,12.3,8.8,18.4,1,America
Ecuador,Quito,-0.22,-78.5,2023-09-01 18:30,14.8,4.3,73,86,10,3,2777.1,2.8,116.5,45.8,31.9,35.5,2,America
Egypt,Cairo,30.05,31.25,2023-09-02 02:30,26,16.9,70,0,10,1,217,54.4,11.3,7,13.7,26.7,1,Africa
El Salvador,San Salvador,13.71,-89.2,2023-09-01 17:30,24,15.1,74,75,10,6,347.1,73,1.8,6.6,7.5,9.4,1,America
Equatorial Guinea,Malabo,3.75,8.78,2023-09-02 00:30,24.5,15.1,89,100,7,1,467.3,45.1,0.1,0.1,4.4,4.6,1,Africa
Eritrea,Asmara,15.33,38.93,2023-09-02 02:30,18.1,3.6,74,77,10,1,303.8,32.2,1.2,0.3,25.2,76,2,Africa
Estonia,Tallinn,59.43,24.73,2023-09-02 02:30,10,11.2,94,0,10,1,247,55.1,4,2.4,5.4,5.9,1,Europe
Swaziland,Mbabane,-26.32,31.13,2023-09-02 01:30,12.8,4.7,92,34,10,1,263.7,34.3,1.7,0.6,6.2,9.9,1,Africa
Ethiopia,Addis Ababa,9.03,38.7,2023-09-02 02:30,14,4,82,25,10,1,4806.5,2.8,20.9,3.2,222.1,352.4,5,Africa
Fiji Islands,Suva,-18.13,178.42,2023-09-02 11:30,28,22,70,75,10,7,185.3,60.1,0.7,1.2,2.9,10.3,1,Pacific
Finland,Helsinki,60.18,24.93,2023-09-02 02:30,12,6.8,94,25,10,1,263.7,61.5,6,1.9,6.7,7.7,1,Europe
France,Paris,48.87,2.33,2023-09-02 01:30,18,6.1,88,75,10,1,1522.1,0,28.1,3.1,83.2,91.1,4,Europe
Gabon,Libreville,0.38,9.45,2023-09-02 00:30,26,13,84,75,10,1,580.8,37.6,1.1,1.1,6.1,11.9,1,Africa
Gambia,Banjul,13.45,-16.58,2023-09-01 23:30,23,3.6,94,75,10,1,350.5,27.9,1.4,1.8,2.4,4.2,1,Africa
Georgia,Tbilisi,41.73,44.79,2023-09-02 03:30,24,13,74,37,10,1,370.5,14.5,6,0.2,17.2,21.7,2,Asia
Germany,Berlin,52.52,13.4,2023-09-02 01:30,12,4,94,0,10,1,283.7,20.7,18.3,3.6,6.4,7,1,Europe
Ghana,Accra,5.55,-0.22,2023-09-01 23:30,26,20.2,89,75,10,1,480.7,27.5,2.2,1.5,9.2,17.8,1,Africa
Greece,Athens,37.98,23.72,2023-09-02 02:30,25,9,41,25,10,1,340.5,34.7,46.6,22.9,15.9,21.7,2,Europe
Grenada,Saint George's,12.05,-61.75,2023-09-01 19:30,29,19.1,84,25,10,1,230.3,20.6,1.5,0.8,1.3,4.4,1,America
Guatemala,Guatemala City,14.62,-90.53,2023-09-01 17:30,26,11.2,58,100,10,5,313.8,39,0.8,12.6,3.6,6.2,1,America
Guinea,Conakry,9.51,-13.71,2023-09-01 23:30,27,3.6,89,75,10,1,640.9,20,6.8,4.2,13.6,18.7,1,Africa
Guinea-Bissau,Bissau,11.85,-15.58,2023-09-01 23:30,25,3.6,94,25,8,1,387.2,7.1,1.2,0.7,2.5,4.2,1,Africa
Guyana,Georgetown,6.8,-58.17,2023-09-01 19:30,28,11.2,84,50,10,1,310.4,16.3,6.1,4.7,2,7.2,1,America
Haiti,Port-Au-Prince,18.54,-72.34,2023-09-01 19:30,31,9,79,50,9,6,547.4,68.7,17,9.5,12.4,19.9,1,America
Vatican City,Vatican City,41.9,12.45,2023-09-02 01:30,20,3.6,83,0,10,1,948,0,24,0.9,26.8,33.1,2,Europe
Honduras,Tegucigalpa,14.1,-87.22,2023-09-01 17:30,22,25.9,88,75,10,4,347.1,24.7,3.1,1,1.5,3.8,1,America
Hungary,Budapest,47.5,19.08,2023-09-02 01:30,15,3.6,88,0,10,1,527.4,0.1,52.1,3.6,25.4,31.1,2,Europe
Iceland,Hella,63.83,-20.4,2023-09-01 23:30,11.8,70.6,96,100,7,1,240.3,65.8,0.2,0.2,1.7,2.1,1,Atlantic
India,New Delhi,28.6,77.2,2023-09-02 05:00,31.3,12.6,38,6,10,1,343.8,44,9.2,5.3,21.7,48.6,2,Asia
Indonesia,Jakarta,-6.21,106.85,2023-09-02 06:30,24,6.8,94,25,5,7,12603.8,0,60.3,29.6,563.6,734.6,6,Asia
Iran,Tehran,35.73,51.33,2023-09-02 03:00,26,6.8,32,0,10,1,427.3,0,87.7,50.1,72.5,116.9,4,Asia
Iraq,Baghdad,33.34,44.39,2023-09-02 02:30,34,3.6,22,0,10,1,240.3,97.3,1.9,2,18.4,57.4,2,Asia
Ireland,Dublin,53.33,-6.25,2023-09-02 00:30,13,11.2,100,75,5,1,247,50.8,10.6,4.2,6.9,8,1,Europe
Israel,Jerusalem,31.78,35.23,2023-09-02 02:30,26,3.6,74,50,10,1,273.7,25.4,28.8,3.7,23.9,35.4,2,Asia
Italy,Rome,41.9,12.48,2023-09-02 01:30,20,3.6,83,0,10,1,948,0,24,0.9,26.8,33.1,2,Europe
Jamaica,Norman Gardens,17.97,-76.75,2023-09-01 18:30,33,37.1,71,50,10,6,2590.2,5.8,45.2,10.7,15.7,20,2,America
Japan,Tokyo,35.69,139.69,2023-09-02 08:30,30,19.1,75,25,10,7,220.3,13.2,31.9,32.9,14,19.5,1,Asia
Jordan,Amman,31.95,35.93,2023-09-02 02:30,26,3.6,34,0,8,1,207,43.3,13.4,3.9,20.5,34.3,2,Asia
Kazakhstan,Astana,51.18,71.43,2023-09-02 05:30,7,6.8,100,60,0.1,1,253.7,21.5,6.8,10.4,1.7,1.9,1,Asia
Kenya,Nairobi,-1.28,36.82,2023-09-02 02:30,17,9,83,50,10,1,527.4,31.8,5.5,4.7,10.7,23.9,1,Africa
Kiribati,Tarawa,-0.88,169.53,2023-09-02 11:30,29,22,77,76,10,6,161.9,20.4,0,0.1,0.9,1.9,1,Pacific
Kuwait,Kuwait City,29.37,47.96,2023-09-02 02:30,34.8,22.7,29,0,10,1,233.7,107.3,0.6,0.5,22.9,86.5,2,Asia
Kyrghyzstan,Bishkek,42.87,74.6,2023-09-02 05:30,14.5,4.3,45,3,10,1,300.4,2.4,21.6,2.6,9.5,13.9,1,Asia
Indonesia,Laos,-8.18,114.32,2023-09-02 06:30,18,3.6,89,32,10,5,390.5,25.8,3.6,0.5,17.6,25.3,2,Asia
Latvia,Riga,56.95,24.1,2023-09-02 02:30,14,20.2,94,50,10,1,208.6,43.3,1.6,0.3,1.1,1.2,1,Europe
Lebanon,Beirut,33.87,35.51,2023-09-02 02:30,27,11.2,74,75,10,1,201.9,90.8,2.1,2.3,18.5,27.5,2,Asia
Lesotho,Maseru,-29.32,27.48,2023-09-02 01:30,12.5,6.1,34,10,10,1,587.5,27.2,12.5,2.5,35.7,62,2,Africa
Liberia,Monrovia,6.31,-10.8,2023-09-01 23:30,25,3.6,94,75,10,1,367.2,41.5,0.3,0.2,1.9,2.6,1,Africa
Thailand,Nan,18.78,100.78,2023-09-02 06:30,26,6.8,94,75,10,1,367.2,21.5,1.4,2.1,12.8,12.9,1,Asia
Liechtenstein,Vaduz,47.13,9.52,2023-09-02 01:30,16,4,94,0,10,1,237,17.4,12.9,1.9,10,12,1,Europe
Lithuania,Vilnius,54.68,25.32,2023-09-02 02:30,14,16.9,72,0,10,1,243.7,63.7,1.8,1.4,2.8,3.4,1,Europe
Luxembourg,Luxembourg,49.61,6.13,2023-09-02 01:30,15,6.1,100,0,10,1,220.3,4.3,14.6,0.4,2.9,3.5,1,Europe
Madagascar,Antananarivo,-18.92,47.52,2023-09-02 02:30,12,13,100,25,10,1,480.7,30.4,2.4,2,6.6,17.3,1,Indian
Malawi,Lilongwe,-13.98,33.78,2023-09-02 01:30,19.4,4.3,51,8,10,1,487.3,40.4,3.3,0.6,20.4,26.8,2,Africa
Malaysia,Kuala Lumpur,3.17,101.7,2023-09-02 07:30,25,3.6,94,25,7,1,6301.9,0,35.3,39.6,213.3,248.7,5,Asia
Maldives,Farukolhufunadhoo,6.15,73.27,2023-09-02 04:30,26.9,25.6,83,62,10,1,181.9,36.8,0.3,0.3,1.6,3.7,1,Indian
Mali,Bamako,12.65,-8,2023-09-01 23:30,27,3.6,89,25,10,1,397.2,4.7,1.4,0.8,3.8,8.4,1,Africa
Malta,Valletta,35.9,14.51,2023-09-02 01:30,23,6.8,78,25,10,1,210.3,91.6,1.1,19.8,57.4,62.1,3,Europe
Marshall Islands,Majuro,7.1,171.38,2023-09-02 11:30,29,13,79,100,24,6,175.2,8.6,0,0,0.5,0.6,1,Pacific
Mauritania,Nouakchott,18.09,-15.98,2023-09-01 23:30,28,29.9,79,15,10,1,350.5,47.9,0.5,0.4,2.5,9.5,1,Africa
Mauritius,Port Louis,-20.16,57.5,2023-09-02 03:30,22,19.1,88,50,10,1,208.6,40.1,0.9,1.4,4.8,7.7,1,Indian
Mexico,Mexico City,19.43,-99.13,2023-09-01 17:30,20,22,60,100,9.7,6,2590.2,266.1,130.2,87.7,144.9,153.2,4,America
Micronesia,Palikir,6.92,158.15,2023-09-02 10:30,29,6.1,79,100,21,6,185.3,4.1,0,0,0.5,0.8,1,Pacific
Russia,Chi-Chi-Erh,51.7,94.45,2023-09-02 06:30,13.9,8.6,70,55,10,3,173.6,11.6,1.1,0.4,1,1,1,Asia
Monaco,Monaco,43.73,7.42,2023-09-02 01:30,23,11.2,78,75,10,1,267,19.3,17.5,1.6,12.5,15.7,1,Europe
Mongolia,Ulaanbaatar,47.92,106.92,2023-09-02 07:30,11,3.6,87,50,10,5,166.9,66.5,0.9,11.8,1.5,2.3,1,Asia
Montenegro,Podgorica,42.44,19.26,2023-09-02 01:30,20,9,83,0,10,1,193.6,32.5,4.9,1.9,6.2,7.3,1,Europe
Morocco,Rabat,34.03,-6.84,2023-09-02 00:30,22,13,83,75,5,1,196.9,75.1,0.3,0.5,3.1,13.1,1,Africa
Mozambique,Maputo,-25.97,32.59,2023-09-02 01:30,19,16.9,78,0,10,1,303.8,62.2,1,0.9,5.7,18.6,1,Africa
Myanmar,Pathein,16.78,94.73,2023-09-02 06:00,25.8,6.1,92,60,10,6,210.3,52.9,0.3,0.2,15.4,18.2,1,Asia
Namibia,Windhoek,-22.57,17.08,2023-09-02 01:30,15,6.1,31,0,10,1,413.9,47.2,3,4.7,35,65.4,2,Africa
Turkey,Yaren,39.55,27.62,2023-09-02 02:30,24,9,65,0,10,1,283.7,65.8,5.1,5.7,16.5,19.7,2,Europe
Nepal,Kathmandu,27.72,85.32,2023-09-02 05:15,21,6.1,94,50,7,5,1281.7,8.5,15.9,3.8,75.2,98.7,4,Asia
Netherlands,Amsterdam,52.37,4.89,2023-09-02 01:30,17,9,94,50,5,1,260.4,0.2,31.9,1.6,4.6,6,1,Europe
New Zealand,Wellington,-41.3,174.78,2023-09-02 11:30,16,4,63,0,10,4,205.3,57.9,0.7,0.3,1.6,3.1,1,Pacific
Nicaragua,Managua,12.15,-86.27,2023-09-01 17:30,31,15.1,66,50,10,6,330.5,45.8,5.2,6.3,2.5,3.5,1,America
Niger,Niamey,13.52,2.12,2023-09-02 00:30,30,11.2,66,0,10,1,487.3,18.8,2.1,0.6,9.5,12.1,1,Africa
Nigeria,Abuja,9.18,7.18,2023-09-02 00:30,22,9,94,75,10,1,620.8,12.7,3.4,0.3,10.6,13.4,1,Africa
North Korea,Pyongyang,39.02,125.75,2023-09-02 08:30,19.7,3.6,84,10,10,5,330.5,25,6.3,6.5,17.6,24.4,2,Asia
Macedonia,Skopje,42,21.43,2023-09-02 01:30,16,3.6,82,0,10,1,267,11.4,11.1,1.7,15.9,19.5,2,Europe
Norway,Oslo,59.92,10.75,2023-09-02 01:30,12,15.1,67,100,10,1,217,10.8,18.5,8.5,4.9,5.9,1,Europe
Oman,Muscat,23.61,58.59,2023-09-02 03:30,30,11.2,89,0,8,1,240.3,27.5,23.3,8.4,38.2,121.5,2,Asia
Pakistan,Islamabad,33.7,73.17,2023-09-02 04:30,26.6,8.6,61,24,10,1,881.2,34.7,16.3,2.1,78.5,141.7,4,Asia
Palau,Adkip,7.36,134.51,2023-09-02 08:30,28,13,89,100,21,1,190.3,24,0.1,0.2,2.2,4.5,1,Pacific
Bolivia,National,-11.18,-67.08,2023-09-01 19:30,26.7,4,70,79,9,1,383.9,3.5,0.1,0,4.3,4.3,1,America
Panama,Panama City,8.97,-79.53,2023-09-01 18:30,28,13,89,50,10,6,594.1,13.2,13.4,10.3,2.8,3.6,1,America
Papua New Guinea,Port Moresby,-9.46,147.19,2023-09-02 09:45,27,19.1,66,25,10,7,210.3,65.8,4.5,6.9,2,5.3,1,Pacific
Paraguay,Carreria,-21.55,-58.12,2023-09-01 19:30,32.8,9.4,35,14,10,1,607.5,37.9,0.3,0.2,9.7,9.8,1,America
Peru,Lima,-12.05,-77.05,2023-09-01 18:45,18.7,15.5,81,34,10,5,330.5,47.2,16.5,6.8,9.1,22.2,1,America
Philippines,Manila,14.6,120.98,2023-09-02 07:45,27,13,94,100,9,6,310.4,31.1,6.8,1.9,4,8.4,1,Asia
Poland,Warsaw,52.25,21,2023-09-02 01:30,13,6.1,88,0,10,1,340.5,26.1,17.3,7,10,13.5,1,Europe
Portugal,Lisbon,38.72,-9.13,2023-09-02 00:30,20,11.2,83,25,10,1,203.6,64.4,3.5,1.4,2,3.8,1,Europe
Qatar,Doha,25.29,51.53,2023-09-02 02:45,35,9,30,0,10,1,273.7,103,18,16,37.5,75.7,2,Asia
Romania,Bucharest,44.43,26.1,2023-09-02 02:45,19,4,68,0,10,1,307.1,18.6,12,1.3,9.5,11.7,1,Europe
Russia,Moscow,55.75,37.62,2023-09-02 02:30,15,11.2,88,0,10,1,363.8,0.2,39.4,13.7,13.7,16.4,1,Europe
Rwanda,Kigali,-1.95,30.06,2023-09-02 01:45,18,28.1,94,75,10,1,827.8,10.1,9.3,0.8,38.6,61.9,2,Africa
Saint Kitts and Nevis,Basseterre,17.3,-62.72,2023-09-01 19:45,28,13,84,25,10,1,212,41.8,0.7,0.3,2,9.4,1,America
Saint Lucia,Castries,14,-61,2023-09-01 19:45,26,6.8,94,75,10,1,223.6,20.6,0.2,0.2,1.8,5,1,America
Saint Vincent and the Grenadines,Kingstown,13.13,-61.22,2023-09-01 19:45,29,24.8,74,54,10,1,230.3,22.4,0.1,0.1,1.7,4.9,1,America
Samoa,Apia,-13.83,-171.73,2023-09-02 12:45,30,16.9,66,75,10,7,201.9,65.8,0.1,0.3,3.2,11.4,1,Pacific
San Marino,San Marino,43.93,12.45,2023-09-02 01:30,19,4,88,0,10,1,267,100.1,2.3,0.8,7.4,9,1,Europe
Belgium,'S-Gravenwezel,51.27,4.55,2023-09-02 01:45,17,3.6,94,100,8,1,257,0,23.3,4.7,5.5,7.1,1,Europe
Saudi Arabia,Riyadh,24.64,46.77,2023-09-02 02:30,30,4,14,0,10,1,237,62.2,20.9,33.9,20.8,69,2,Asia
Senegal,Dakar,14.67,-17.44,2023-09-01 23:45,29,15.1,84,75,10,1,340.5,26.1,0.5,0.3,1.7,5,1,Africa
Serbia,Belgrade,44.8,20.47,2023-09-02 01:45,17,6.1,88,0,10,1,317.1,21.8,26.4,1.4,19.9,27.3,2,Europe
Seychelles Islands,Victoria,-4.62,55.45,2023-09-02 03:45,27,24.1,74,50,10,1,201.9,51.5,0.2,0.6,5.2,14,1,Indian
Sierra Leone,Freetown,8.49,-13.23,2023-09-01 23:45,26,11.2,89,75,10,1,357.2,5.8,0.9,0.2,3.7,4.8,1,Africa
Singapore,Singapore,1.29,103.86,2023-09-02 07:30,25,3.6,100,75,9,1,834.5,0.1,42.5,22.9,16,25.1,2,Asia
Slovakia,Bratislava,48.15,17.12,2023-09-02 01:30,18,6.1,88,0,10,1,223.6,46.5,4.2,0.7,6.4,7.2,1,Europe
Slovenia,Ljubljana,46.06,14.51,2023-09-02 01:45,14,3.6,100,0,10,1,243.7,0.1,4.5,0.4,15.4,22.3,1,Europe
Solomon Islands,Honiara,-9.43,159.95,2023-09-02 10:45,27.8,10.8,77,29,10,7,180.2,26.8,0.6,0.4,0.6,0.7,1,Pacific
Somalia,Mogadishu,2.07,45.37,2023-09-02 02:45,24.6,31.7,84,34,10,1,185.3,45.4,0.1,0.3,7.2,24.4,1,Africa
South Africa,Pretoria,-25.75,28.19,2023-09-02 01:30,18,9,30,0,10,1,580.8,28.6,11.5,20.5,23.3,35.2,2,Africa
South Korea,Seoul,37.57,127,2023-09-02 08:30,23,4,83,0,10,6,1281.7,0.4,24.7,24.1,92.9,100.9,4,Asia
Sudan,Juba,12.15,24.45,2023-09-02 01:45,26.5,10.4,60,17,10,1,260.4,6.4,0.6,0,1.7,7.6,1,Africa
Spain,Madrid,40.4,-3.68,2023-09-02 01:30,23,3.6,47,0,10,1,233.7,75.1,5.6,0.2,3.4,4.1,1,Europe
Sri Lanka,Colombo,6.93,79.85,2023-09-02 05:15,25,6.8,94,75,10,1,198.6,18.6,2,1,1.4,2.7,1,Asia
Sudan,Khartoum,15.59,32.53,2023-09-02 01:45,35.1,6.1,33,8,10,1,907.9,3.8,12.7,2.5,31.7,64.3,2,Africa
Suriname,Paramaribo,5.83,-55.17,2023-09-01 20:45,27,6.8,84,25,10,1,277,32.5,0.1,0.1,2.5,8.3,1,America
Sweden,Stockholm,59.33,18.05,2023-09-02 01:30,11,3.6,100,60,0.2,1,198.6,39,3,1.8,0.9,1.1,1,Europe
Switzerland,Bern,46.92,7.47,2023-09-02 01:45,14,4,88,0,10,1,363.8,0.1,37.7,8.2,15.1,18,1,Europe
Syria,Damascus,33.5,36.3,2023-09-02 02:45,22,20.2,53,0,10,1,270.4,38.3,12.3,6.3,14.1,31.5,1,Asia
Tajikistan,Dushanbe,38.56,68.77,2023-09-02 04:45,17,6.8,68,0,7,1,217,24,2.8,1.6,8.6,19.5,1,Asia
Tanzania,Dodoma,-6.18,35.75,2023-09-02 02:45,19.5,19.1,65,5,10,1,213.6,36.5,0.3,0.2,2.6,4.1,1,Africa
Thailand,Bangkok,13.75,100.52,2023-09-02 06:45,28,9,74,75,10,1,701,0,12,13.5,15.9,43.2,2,Asia
Indonesia,Murong Timor,-7.56,112.27,2023-09-02 06:45,20,10.8,85,51,10,6,494,21.3,7.9,2.4,18.2,32.5,2,Asia
Bulgaria,Lom,43.81,23.24,2023-09-02 02:45,18,5,54,6,10,1,240.3,15.4,8.1,0.2,8.6,10.5,1,Europe
Tonga,Nuku`Aloia,-21.13,-175.2,2023-09-02 12:45,25,28.1,74,25,10,6,201.9,65.8,0.1,0.3,2.6,13.1,1,Pacific
Trinidad and Tobago,Port Of Spain,10.65,-61.52,2023-09-01 19:45,28,11.2,84,25,10,1,250.3,14.5,10.9,0.9,0.7,1.4,1,America
Tunisia,Tunis,36.8,10.18,2023-09-02 00:45,25,9,69,0,10,1,330.5,70.8,9.4,8.1,6.4,14.7,1,Africa
Turkey,Ankara,39.93,32.86,2023-09-02 02:30,21,3.6,64,0,10,1,243.7,62.9,4.7,2.7,11.7,13.9,1,Europe
Turkmenistan,Ashgabat,37.95,58.38,2023-09-02 04:45,22,3.6,53,0,10,1,267,43.6,30.2,17.2,20.4,94.2,2,Asia
Uganda,Kampala,0.32,32.57,2023-09-02 02:45,19.3,3.6,86,10,10,1,574.1,9.7,2,0.3,38.3,54.5,2,Africa
Ukraine,Lviv,49.83,24,2023-09-02 02:30,14.9,10.1,71,40,10,1,260.4,18.1,18.5,2.3,5.9,7.5,1,Europe
United Arab Emirates,Abu Dhabi,24.47,54.37,2023-09-02 03:30,34,11.2,63,25,10,1,400.5,183.1,0.3,6.7,43.8,85.4,3,Asia
United Kingdom,London,51.52,-0.11,2023-09-02 00:30,17,11.2,94,50,10,1,263.7,0,22.6,3.6,8.1,10.6,1,Europe
United States of America,Washington Park,46.6,-120.49,2023-09-01 16:45,24.4,9,42,50,16,7,290.4,95.8,1.1,0.1,18.3,18.7,2,America
Uruguay,Montevideo,-34.86,-56.17,2023-09-01 20:30,18,11.2,73,0,10,1,894.6,9.7,30.2,9.3,22.9,32.2,2,America
Uzbekistan,Tashkent,41.32,69.25,2023-09-02 04:45,17,11.2,52,0,10,1,250.3,21.1,14.9,1,8.2,22.9,1,Asia
Vanuatu,Port Vila,-17.73,168.32,2023-09-02 10:45,24.7,15.8,77,55,10,6,180.2,43.3,0,5.8,9,13.5,1,Pacific
Venezuela,Caracas,10.5,-66.92,2023-09-01 19:30,28,19.1,74,0,9,1,350.5,49.4,19.5,26.5,6,7.7,1,America
Vietnam,Hanoi,21.03,105.85,2023-09-02 06:30,27,6.1,89,0,5,6,2376.6,0,11.8,5,148.5,194.3,4,Asia
Yemen,Sanaa,15.35,44.21,2023-09-02 02:45,19,13.7,31,8,10,1,178.6,61.5,5.8,11.1,38.1,139.1,2,Asia
Zambia,Lusaka,-15.42,28.28,2023-09-02 01:45,18.6,8.6,33,0,10,1,1188.3,42.9,4.8,6.3,11.7,18.7,1,Africa
Zimbabwe,Harare,-17.82,31.04,2023-09-02 01:45,15.2,6.8,29,0,10,1,600.8,37.9,8.8,10.4,41,55.7,3,Africa
Afghanistan,Kabul,34.52,69.18,2023-09-03 04:15,17,3.6,27,0,10,1,701,64.4,6.8,0.6,12.2,25.9,1,Asia
Albania,Tirana,41.33,19.82,2023-09-03 01:45,20,3.6,88,0,10,1,257,55.8,6.1,0.6,14.8,17.6,1,Europe
Algeria,Algiers,36.76,3.05,2023-09-03 00:30,27,16.9,54,75,10,1,257,50.1,19,3.9,12.3,28.8,1,Africa
Andorra,Andorra La Vella,42.5,1.52,2023-09-03 01:45,7.2,7.2,73,76,10,1,168.6,45.1,0.8,0.1,0.6,0.9,1,Europe
Angola,Luanda,-8.84,13.23,2023-09-03 00:45,22,11.2,88,75,10,1,514,67.2,4.5,2.6,8.3,20.7,1,Africa
Antigua and Barbuda,Saint John's,17.12,-61.85,2023-09-02 19:45,29,6.8,75,25,10,1,260.4,18.4,0.8,0.8,6.2,10.8,1,America
Argentina,Buenos Aires,-34.59,-58.67,2023-09-02 20:45,11,19.1,76,0,10,1,353.8,41.8,24.7,19.1,5.5,8.1,1,America
Armenia,Yerevan,40.18,44.51,2023-09-03 03:45,26,24.1,39,0,10,1,208.6,40.1,2.6,0.2,2.8,3.4,1,Asia
Australia,Canberra,-35.28,149.22,2023-09-03 09:45,9,9,76,0,10,4,203.6,42.2,2.1,0.4,1.1,2.1,1,Australia
Austria,Vienna,48.2,16.37,2023-09-03 01:45,17,6.1,83,0,10,1,707.6,5.1,40.4,1,19,24.4,2,Europe
